{"version":0.6,"generator":"Overpass API 0.7.62.11 87bfad18","osm3s":{"timestamp_osm_base":"2026-06-16T10:45:30Z","copyright":"The data included in this document is from www.openstreetmap.org. The data is made available under ODbL."},"elements":[{"type":"node","id":29391283,"lat":-6.8807039,"lon":107.5829931,"tags":{"name":"Setrasari Mall","shop":"mall"}},{"type":"node","id":32041712,"lat":-6.8824074,"lon":107.6012807,"tags":{"name":"Setiabudhi Supermarket","shop":"supermarket"}},{"type":"node","id":32041753,"lat":-6.8855637,"lon":107.6118223,"tags":{"air_conditioning":"yes","branch":"Tamansari 2","brand":"Circle K","brand:wikidata":"Q3268010","brand:wikipedia":"id:Circle K","currency:IDR":"yes","diet:halal":"yes","name":"Circle K","name:en":"Circle K","name:ja":"サークルK","opening_hours":"Mo-Fr 08:00-24:00; Sa-Su 08:00-02:00","owner":"PT. Circleka Indonesia Utama","payment:cash":"yes","payment:contactless":"no","payment:credit_cards":"yes","payment:debit_cards":"yes","payment:electronic_purses":"yes","shop":"convenience"}},{"type":"node","id":32041927,"lat":-6.8961585,"lon":107.6035969,"tags":{"created_by":"JOSM","name":"Premier Cihampelas","shop":"supermarket"}},{"type":"node","id":32519294,"lat":-6.9056137,"lon":107.6103851,"tags":{"name":"Optik Melawai","shop":"optician"}},{"type":"node","id":32520413,"lat":-6.9020861,"lon":107.6113879,"tags":{"air_conditioning":"yes","brand":"Circle K","brand:wikidata":"Q3268010","brand:wikipedia":"id:Circle K","currency:IDR":"yes","name":"Circle K","name:en":"Circle K","name:ja":"サークルK","opening_hours":"Mo-Fr 08:00-24:00; Sa-Su 08:00-02:00","owner":"PT. Circleka Indonesia Utama","payment:cash":"yes","payment:contactless":"no","payment:credit_cards":"yes","payment:debit_cards":"yes","payment:electronic_purses":"yes","shop":"convenience"}},{"type":"node","id":32529914,"lat":-6.8855838,"lon":107.5816217,"tags":{"air_conditioning":"yes","brand":"Indomaret","brand:wikidata":"Q4262825","brand:wikipedia":"id:Indomaret","name":"Indomaret","name:en":"Indomaret","name:id":"Indomaret","name:ja":"インドマレット","opening_hours":"Mo-Su 07:00-22:00","operator":"PT. Indomarco Prismatama","payment:cash":"yes","payment:contactless":"yes","payment:credit_cards":"yes","payment:debit_cards":"yes","payment:electronic_purses":"no","shop":"convenience","toilets":"yes","toilets:access":"permissive","website":"https://www.klikindomaret.com"}},{"type":"node","id":32529919,"lat":-6.8884968,"lon":107.5816697,"tags":{"air_conditioning":"yes","brand":"Circle K","brand:wikidata":"Q3268010","brand:wikipedia":"id:Circle K","currency:IDR":"yes","name":"Circle K","name:en":"Circle K","name:ja":"サークルK","opening_hours":"Mo-Fr 08:00-24:00; Sa-Su 08:00-02:00","owner":"PT. Circleka Indonesia Utama","payment:cash":"yes","payment:contactless":"no","payment:credit_cards":"yes","payment:debit_cards":"yes","payment:electronic_purses":"yes","shop":"convenience"}},{"type":"node","id":32529923,"lat":-6.8977508,"lon":107.6045111,"tags":{"air_conditioning":"yes","brand":"Circle K","brand:wikidata":"Q3268010","brand:wikipedia":"id:Circle K","currency:IDR":"yes","name":"Circle K","name:en":"Circle K","name:ja":"サークルK","opening_hours":"Mo-Fr 08:00-24:00; Sa-Su 08:00-02:00","owner":"PT. Circleka Indonesia Utama","payment:cash":"yes","payment:contactless":"no","payment:credit_cards":"yes","payment:debit_cards":"yes","payment:electronic_purses":"yes","shop":"convenience"}},{"type":"node","id":32529939,"lat":-6.9066941,"lon":107.6123657,"tags":{"brand":"Yogya","brand:wikidata":"Q124353073","diet:halal":"yes","level":"1","name":"Yogya","opening_hours":"Mo-Su 08:00-22:00","shop":"supermarket"}},{"type":"node","id":981079974,"lat":-6.9383535,"lon":107.6129673,"tags":{"name":"Blossom Factory Outlet","shop":"department_store"}},{"type":"node","id":1013411811,"lat":-6.9175343,"lon":107.6038426,"tags":{"addr:city":"Bandung","addr:housenumber":"#70","addr:postcode":"40181","addr:street":"Jalan Otto Iskandardinata","name":"Pasar Baru Trade Centre","shop":"fashion"}},{"type":"node","id":1107474863,"lat":-6.8657497,"lon":107.574506,"tags":{"branch":"Cimahi Ciwaruga","brand":"Alfamart","brand:wikidata":"Q23745600","name":"Alfamart","operator":"PT Sumber Alfaria Trijaya,Tbk","shop":"convenience","toilets":"yes","toilets:access":"permissive","toilets:unisex":"yes","website":"https://alfamart.co.id"}},{"type":"node","id":1107494492,"lat":-6.9178476,"lon":107.6264761,"tags":{"name":"Jaya Plaza","shop":"electronics"}},{"type":"node","id":1107777603,"lat":-6.9048451,"lon":107.6168101,"tags":{"addr:city":"Bandung","addr:housenumber":"38","addr:street":"Jalan Banda","craft":"photographer","name":"Jonas Photo","shop":"photo_studio"}},{"type":"node","id":1108674355,"lat":-6.9377575,"lon":107.6243315,"tags":{"addr:city":"Bandung","addr:housenumber":"145","addr:postcode":"40265","addr:street":"Jalan Buah Batu","clothes":"women;children;men","name":"Rabbani","opening_hours":"Mo-Su 08:00-21:00","shop":"clothes"}},{"type":"node","id":1341941770,"lat":-6.8920363,"lon":107.6129097,"tags":{"building":"yes","building:levels":"1","building:roof":"tile","building:structure":"reinforced_masonry","building:use":"commercial","building:walls":"brick","name":"Asta Toko Bahan Kue","shop":"yes"}},{"type":"node","id":1341941789,"lat":-6.8918699,"lon":107.6129465,"tags":{"building":"yes","building:levels":"2","building:roof":"tile","building:structure":"reinforced_masonry","building:use":"commercial","building:walls":"brick","name":"ADF Outlet","shop":"shoes"}},{"type":"node","id":1342115101,"lat":-6.8876559,"lon":107.6132404,"tags":{"air_conditioning":"yes","brand":"Circle K","brand:wikidata":"Q3268010","brand:wikipedia":"id:Circle K","currency:IDR":"yes","name":"Circle K","name:en":"Circle K","name:ja":"サークルK","opening_hours":"Mo-Fr 08:00-24:00; Sa-Su 08:00-02:00","owner":"PT. Circleka Indonesia Utama","payment:cash":"yes","shop":"convenience"}},{"type":"node","id":1342115102,"lat":-6.8876565,"lon":107.6133497,"tags":{"air_conditioning":"yes","brand":"Circle K","brand:wikidata":"Q3268010","brand:wikipedia":"id:Circle K","currency:IDR":"yes","name":"Circle K","name:en":"Circle K","name:ja":"サークルK","opening_hours":"Mo-Fr 08:00-24:00; Sa-Su 08:00-02:00","owner":"PT. Circleka Indonesia Utama","payment:cash":"yes","shop":"convenience"}},{"type":"node","id":1342215825,"lat":-6.8877229,"lon":107.6132401,"tags":{"air_conditioning":"yes","brand":"Circle K","brand:wikidata":"Q3268010","brand:wikipedia":"id:Circle K","currency:IDR":"yes","name":"Circle K","name:en":"Circle K","name:ja":"サークルK","opening_hours":"Mo-Fr 08:00-24:00; Sa-Su 08:00-02:00","owner":"PT. Circleka Indonesia Utama","payment:cash":"yes","shop":"convenience"}},{"type":"node","id":1342944379,"lat":-6.9039115,"lon":107.6107242,"tags":{"name":"Wisata Belanja Dago","shop":"clothes"}},{"type":"node","id":1342948130,"lat":-6.9059786,"lon":107.6163236,"tags":{"addr:city":"Bandung","addr:housenumber":"61","addr:postcode":"40115","addr:street":"Jalan R.E. Martadinata","name":"3second","shop":"clothes"}},{"type":"node","id":1346794383,"lat":-6.8944347,"lon":107.6155573,"tags":{"addr:city":"Bandung","addr:housenumber":"6","addr:street":"JL. Imam Bonjol","name":"LAVIE Baby Shop","opening_hours":"08:00-18:00","shop":"toys"}},{"type":"node","id":1346794444,"lat":-6.8942549,"lon":107.6155573,"tags":{"name":"LAVIE Baby Shop","opening_hours":"08:00-18:00","shop":"toys"}},{"type":"node","id":1346794459,"lat":-6.8944316,"lon":107.6150322,"tags":{"name":"Evieta Klappertaart dan TIRAMISU","opening_hours":"10:00-18:00","shop":"bakery"}},{"type":"node","id":1385420889,"lat":-6.8849005,"lon":107.6166916,"tags":{"name":"Roti & Kue Baquette","shop":"bakery"}},{"type":"node","id":1388004979,"lat":-6.8879558,"lon":107.6240308,"tags":{"name":"Salon Homaira","shop":"hairdresser"}},{"type":"node","id":1388221667,"lat":-6.891806,"lon":107.6312114,"tags":{"branch":"Cigadung","name":"Borma","opening_hours":"Mo-Su 08:00-20:45","shop":"supermarket"}},{"type":"node","id":1388222362,"lat":-6.8882488,"lon":107.6251727,"tags":{"name":"Pamode Salon","shop":"hairdresser"}},{"type":"node","id":1388222436,"lat":-6.8910423,"lon":107.6271781,"tags":{"air_conditioning":"yes","brand":"Indomaret","brand:wikidata":"Q4262825","brand:wikipedia":"id:Indomaret","name":"Indomaret","name:en":"Indomaret","name:id":"Indomaret","name:ja":"インドマレット","opening_hours":"Mo-Su 07:00-22:00","operator":"PT. Indomarco Prismatama","payment:cash":"yes","payment:contactless":"yes","payment:credit_cards":"yes","payment:debit_cards":"yes","payment:electronic_purses":"no","shop":"convenience","toilets":"yes","toilets:access":"permissive","website":"https://www.klikindomaret.com"}},{"type":"node","id":1449657996,"lat":-6.9550754,"lon":107.6627941,"tags":{"brand":"Toserba Griya","name":"Griya","opening_hours":"Mo-Su 08:00-22:00","operator":"Yogya Group","payment:cash":"yes","payment:credit_cards":"yes","payment:debit_cards":"yes","shop":"supermarket"}},{"type":"node","id":1656868777,"lat":-6.8718892,"lon":107.5945687,"tags":{"brand":"Griya","brand:wikidata":"Q124353081","name":"Griya","opening_hours":"Mo-Su 08:00-22:00","operator":"Yogya Group","payment:cash":"yes","payment:credit_cards":"yes","payment:debit_cards":"yes","shop":"supermarket"}},{"type":"node","id":1666931575,"lat":-6.8828322,"lon":107.5752655,"tags":{"air_conditioning":"yes","brand":"Indomaret","brand:wikidata":"Q4262825","brand:wikipedia":"id:Indomaret","name":"Indomaret","name:en":"Indomaret","name:id":"Indomaret","name:ja":"インドマレット","opening_hours":"Mo-Su 07:00-22:00","operator":"PT. Indomarco Prismatama","payment:cash":"yes","payment:contactless":"yes","payment:credit_cards":"yes","payment:debit_cards":"yes","payment:electronic_purses":"no","shop":"convenience","toilets":"yes","toilets:access":"permissive","website":"https://www.klikindomaret.com"}},{"type":"node","id":1666931592,"lat":-6.8829441,"lon":107.5748793,"tags":{"brand":"Alfamart","brand:wikidata":"Q23745600","brand:wikipedia":"id:Alfamart","name":"Alfamart","name:en":"Alfamart","opening_hours":"Mo-Su 07:00-22:00","operator":"PT Sumber Alfaria Trijaya,Tbk","shop":"convenience","toilets":"yes","toilets:access":"permissive","toilets:unisex":"yes","website":"https://alfamart.co.id"}},{"type":"node","id":1677785871,"lat":-6.8728846,"lon":107.5951306,"tags":{"name":"Rotiku","shop":"bakery"}},{"type":"node","id":1679238195,"lat":-6.9064413,"lon":107.5905383,"tags":{"name":"Sandy Parfum","shop":"kiosk","source":"Local knowledge"}},{"type":"node","id":1746759573,"lat":-6.8943839,"lon":107.6053407,"tags":{"brand":"Pizza Hut","brand:wikidata":"Q191615","brand:wikipedia":"en:Pizza Hut","cuisine":"pizza","shop":"florist"}},{"type":"node","id":1746763795,"lat":-6.8938924,"lon":107.6053462,"tags":{"addr:housenumber":"160","addr:postcode":"40131","addr:street":"Jalan Cihampelas","email":"breadtalk@johnnyandrean.com","name":"Mako","phone":"+62 22 2061097","shop":"bakery","website":"https://www.breadtalk.com/en/"}},{"type":"node","id":1746764256,"lat":-6.8938526,"lon":107.605255,"tags":{"addr:city":"Bandung","addr:housenumber":"G01","addr:postcode":"40131","addr:street":"Jalan Cihampelas","internet_access":"wlan","name":"J.Co.","phone":"+62 22 2060991","shop":"bakery"}},{"type":"node","id":1788554368,"lat":-6.9040204,"lon":107.6050652,"tags":{"shop":"car_repair"}},{"type":"node","id":1860935654,"lat":-6.9080375,"lon":107.5951157,"tags":{"addr:housenumber":"17","addr:street":"Samiaji","name":"Wilbi Salon","name:en":"Wilbi","shop":"hairdresser"}},{"type":"node","id":1904658787,"lat":-6.8695561,"lon":107.5884129,"tags":{"air_conditioning":"yes","brand":"Indomaret","brand:wikidata":"Q4262825","brand:wikipedia":"id:Indomaret","name":"Indomaret","name:en":"Indomaret","name:id":"Indomaret","name:ja":"インドマレット","opening_hours":"Mo-Su 07:00-22:00","operator":"PT. Indomarco Prismatama","payment:cash":"yes","payment:contactless":"yes","payment:credit_cards":"yes","payment:debit_cards":"yes","payment:electronic_purses":"no","shop":"convenience","toilets":"yes","toilets:access":"permissive","website":"https://www.klikindomaret.com"}},{"type":"node","id":1904658796,"lat":-6.8730313,"lon":107.5847705,"tags":{"shop":"convenience"}},{"type":"node","id":1904658799,"lat":-6.8677719,"lon":107.5831477,"tags":{"air_conditioning":"yes","brand":"Indomaret","brand:wikidata":"Q4262825","brand:wikipedia":"id:Indomaret","name":"Indomaret","name:en":"Indomaret","name:id":"Indomaret","name:ja":"インドマレット","opening_hours":"Mo-Su 07:00-22:00","operator":"PT. Indomarco Prismatama","payment:cash":"yes","payment:contactless":"yes","payment:credit_cards":"yes","payment:debit_cards":"yes","payment:electronic_purses":"no","shop":"convenience","toilets":"yes","toilets:access":"permissive","website":"https://www.klikindomaret.com"}},{"type":"node","id":1919646266,"lat":-6.9228238,"lon":107.6049446,"tags":{"shop":"supermarket"}},{"type":"node","id":1919646268,"lat":-6.9272591,"lon":107.6057187,"tags":{"shop":"convenience"}},{"type":"node","id":1919646271,"lat":-6.9274135,"lon":107.6085833,"tags":{"shop":"convenience"}},{"type":"node","id":1919646274,"lat":-6.9266946,"lon":107.6068988,"tags":{"shop":"convenience"}},{"type":"node","id":1924435631,"lat":-6.8945758,"lon":107.6049918,"tags":{"name":"Yogya Xpress","shop":"convenience"}},{"type":"node","id":1930134030,"lat":-6.9558066,"lon":107.6518651,"tags":{"addr:street":"Jalan Marga Cinta","branch":"Margacinta","name":"Borma","name:en":"Borma","opening_hours":"Mo-Su 08:00-20:45","shop":"supermarket"}},{"type":"node","id":1966128689,"lat":-6.9577205,"lon":107.6518169,"tags":{"brand":"Semua Merk","name":"Bengkel Mobil Sempurna Jaya","opening_hours":"08:00-21:00","operator":"Ence","shop":"car_repair"}},{"type":"node","id":1969331883,"lat":-6.8995892,"lon":107.612431,"tags":{"name":"La Belle","shop":"bakery"}},{"type":"node","id":1969331913,"lat":-6.9010937,"lon":107.6125222,"tags":{"name":"Disc Tara","shop":"music"}},{"type":"node","id":2012977192,"lat":-6.9144997,"lon":107.6056015,"tags":{"name":"Kartika Sari","shop":"bakery"}},{"type":"node","id":2016397730,"lat":-6.8835605,"lon":107.5824814,"tags":{"name":"Martabak Bolu Golden Bell","shop":"bakery"}},{"type":"node","id":2280218853,"lat":-6.9389453,"lon":107.6757454,"tags":{"shop":"doityourself"}},{"type":"node","id":2280218854,"lat":-6.9389299,"lon":107.674953,"tags":{"shop":"department_store"}},{"type":"node","id":2490686820,"lat":-6.9070034,"lon":107.5996552,"tags":{"brand":"Alfamart","brand:wikidata":"Q23745600","brand:wikipedia":"id:Alfamart","name":"Alfamart","name:en":"Alfamart","opening_hours":"Mo-Su 07:00-22:00","operator":"PT Sumber Alfaria Trijaya,Tbk","shop":"convenience","toilets":"yes","toilets:access":"permissive","toilets:unisex":"yes","website":"https://alfamart.co.id"}},{"type":"node","id":2490686998,"lat":-6.9211868,"lon":107.6191306,"tags":{"name":"Red Bike","shop":"bicycle"}},{"type":"node","id":2490687086,"lat":-6.9236577,"lon":107.6232719,"tags":{"air_conditioning":"yes","brand":"Circle K","brand:wikidata":"Q3268010","brand:wikipedia":"id:Circle K","currency:IDR":"yes","name":"Circle K","name:en":"Circle K","name:ja":"サークルK","opening_hours":"Mo-Fr 08:00-24:00; Sa-Su 08:00-02:00","owner":"PT. Circleka Indonesia Utama","payment:cash":"yes","payment:contactless":"no","payment:credit_cards":"yes","payment:debit_cards":"yes","payment:electronic_purses":"yes","shop":"convenience"}},{"type":"node","id":2490687087,"lat":-6.923892,"lon":107.6258683,"tags":{"name":"Toyota","shop":"car"}},{"type":"node","id":2491840025,"lat":-6.9242192,"lon":107.6201322,"tags":{"air_conditioning":"yes","branch":"Fresh","brand":"Indomaret","brand:wikidata":"Q4262825","brand:wikipedia":"id:Indomaret","fixme":"Indomaret Fresh","name":"Indomaret","name:en":"Indomaret","name:id":"Indomaret","name:ja":"インドマレット","opening_hours":"Mo-Su 07:00-22:00","operator":"PT. Indomarco Prismatama","payment:cash":"yes","payment:contactless":"yes","payment:credit_cards":"yes","payment:debit_cards":"yes","payment:electronic_purses":"no","shop":"convenience","toilets":"yes","toilets:access":"permissive","website":"https://www.klikindomaret.com"}},{"type":"node","id":2491855812,"lat":-6.8853779,"lon":107.6046252,"tags":{"air_conditioning":"yes","brand":"Indomaret","brand:wikidata":"Q4262825","brand:wikipedia":"id:Indomaret","name":"Indomaret","name:en":"Indomaret","name:id":"Indomaret","name:ja":"インドマレット","opening_hours":"Mo-Su 07:00-22:00","operator":"PT. Indomarco Prismatama","payment:cash":"yes","payment:contactless":"yes","payment:credit_cards":"yes","payment:debit_cards":"yes","payment:electronic_purses":"no","shop":"convenience","toilets":"yes","toilets:access":"permissive","website":"https://www.klikindomaret.com"}},{"type":"node","id":2491855813,"lat":-6.885527,"lon":107.6045394,"tags":{"addr:housenumber":"310","addr:street":"Jalan Cihampelas","name":"Attic Jeans","opening_hours":"Su 11:00-18:00; Mo-Sa 10:00-18:00","phone":"+62222033162","shop":"tailor","website":"http://www.attic-jeans.com/"}},{"type":"node","id":2491855815,"lat":-6.8959866,"lon":107.5997543,"tags":{"air_conditioning":"yes","brand":"Indomaret","brand:wikidata":"Q4262825","brand:wikipedia":"id:Indomaret","name":"Indomaret","name:en":"Indomaret","name:id":"Indomaret","name:ja":"インドマレット","opening_hours":"Mo-Su 07:00-22:00","operator":"PT. Indomarco Prismatama","payment:cash":"yes","payment:contactless":"yes","payment:credit_cards":"yes","payment:debit_cards":"yes","payment:electronic_purses":"no","shop":"convenience","toilets":"yes","toilets:access":"permissive","website":"https://www.klikindomaret.com"}},{"type":"node","id":2492054084,"lat":-6.8961784,"lon":107.5967288,"tags":{"name":"Photocopy Fortuna","shop":"kiosk"}},{"type":"node","id":2493385793,"lat":-6.9304101,"lon":107.6436996,"tags":{"brand":"Alfamart","brand:wikidata":"Q23745600","brand:wikipedia":"id:Alfamart","name":"Alfamart","name:en":"Alfamart","opening_hours":"Mo-Su 07:00-22:00","operator":"PT Sumber Alfaria Trijaya,Tbk","shop":"convenience","toilets":"yes","toilets:access":"permissive","toilets:unisex":"yes","website":"https://alfamart.co.id"}},{"type":"node","id":2494582241,"lat":-6.8680157,"lon":107.6205254,"tags":{"name":"Pitstop Bikes","shop":"bicycle"}},{"type":"node","id":2494627564,"lat":-6.9360122,"lon":107.6427555,"tags":{"air_conditioning":"yes","brand":"Indomaret","brand:wikidata":"Q4262825","brand:wikipedia":"id:Indomaret","name":"Indomaret","name:en":"Indomaret","name:id":"Indomaret","name:ja":"インドマレット","opening_hours":"Mo-Su 07:00-22:00","operator":"PT. Indomarco Prismatama","payment:cash":"yes","payment:contactless":"yes","payment:credit_cards":"yes","payment:debit_cards":"yes","payment:electronic_purses":"no","shop":"convenience","toilets":"yes","toilets:access":"permissive","website":"https://www.klikindomaret.com"}},{"type":"node","id":2494655269,"lat":-6.930048,"lon":107.6259971,"tags":{"brand":"Alfamart","brand:wikidata":"Q23745600","brand:wikipedia":"id:Alfamart","name":"Alfamart","name:en":"Alfamart","opening_hours":"Mo-Su 07:00-22:00","operator":"PT Sumber Alfaria Trijaya,Tbk","shop":"convenience","toilets":"yes","toilets:access":"permissive","toilets:unisex":"yes","website":"https://alfamart.co.id"}},{"type":"node","id":2495896305,"lat":-6.928083,"lon":107.6376378,"tags":{"name":"Yogya","shop":"supermarket"}},{"type":"node","id":2495896309,"lat":-6.9273002,"lon":107.6418972,"tags":{"air_conditioning":"yes","brand":"Indomaret","brand:wikidata":"Q4262825","brand:wikipedia":"id:Indomaret","name":"Indomaret","name:en":"Indomaret","name:id":"Indomaret","name:ja":"インドマレット","opening_hours":"Mo-Su 07:00-22:00","operator":"PT. Indomarco Prismatama","payment:cash":"yes","payment:contactless":"yes","payment:credit_cards":"yes","payment:debit_cards":"yes","payment:electronic_purses":"no","shop":"convenience","toilets":"yes","toilets:access":"permissive","website":"https://www.klikindomaret.com"}},{"type":"node","id":2497013446,"lat":-6.9035393,"lon":107.6052614,"tags":{"air_conditioning":"yes","brand":"Circle K","brand:wikidata":"Q3268010","brand:wikipedia":"id:Circle K","currency:IDR":"yes","name":"Circle K","name:en":"Circle K","name:ja":"サークルK","opening_hours":"24/7","owner":"PT. Circleka Indonesia Utama","payment:cash":"yes","payment:contactless":"no","payment:credit_cards":"yes","payment:debit_cards":"yes","payment:electronic_purses":"yes","shop":"convenience"}},{"type":"node","id":2497173681,"lat":-6.8931747,"lon":107.6050973,"tags":{"name":"Jonas","shop":"photo"}},{"type":"node","id":2497173687,"lat":-6.9065242,"lon":107.6161383,"tags":{"addr:city":"Bandung","addr:housenumber":"32","addr:postcode":"40115","addr:street":"Jalan R.E. Martadinata","name":"Cartenz Tactical","shop":"outdoor"}},{"type":"node","id":2497173760,"lat":-6.9071801,"lon":107.6233065,"tags":{"air_conditioning":"yes","brand":"Circle K","brand:wikidata":"Q3268010","brand:wikipedia":"id:Circle K","currency:IDR":"yes","name":"Circle K","name:en":"Circle K","name:ja":"サークルK","opening_hours":"Mo-Fr 08:00-24:00; Sa-Su 08:00-02:00","owner":"PT. Circleka Indonesia Utama","payment:cash":"yes","payment:contactless":"no","payment:credit_cards":"yes","payment:debit_cards":"yes","payment:electronic_purses":"yes","shop":"convenience"}},{"type":"node","id":2500443113,"lat":-6.9483717,"lon":107.6312011,"tags":{"name":"Honda Autobest","shop":"car"}},{"type":"node","id":2500443114,"lat":-6.9487072,"lon":107.6295376,"tags":{"name":"Suzuki","shop":"car"}},{"type":"node","id":2500443115,"lat":-6.9501769,"lon":107.6287436,"tags":{"name":"Yamaha","shop":"motorcycle"}},{"type":"node","id":2500443119,"lat":-6.9531376,"lon":107.6279497,"tags":{"brand":"Toserba Griya","name":"Griya","opening_hours":"Mo-Su 08:00-22:00","operator":"Yogya Group","payment:cash":"yes","payment:credit_cards":"yes","payment:debit_cards":"yes","shop":"supermarket"}},{"type":"node","id":2733147534,"lat":-6.9237708,"lon":107.6030741,"tags":{"addr:city":"Bandung","addr:housenumber":"17","addr:postcode":"40241","addr:street":"Kalipah Apo","name":"MEGARIA","phone":"+62 22 4232900","shop":"houseware"}},{"type":"node","id":2756802288,"lat":-6.9149472,"lon":107.6339027,"tags":{"addr:city":"Bandung","addr:housenumber":"296","addr:postcode":"40271","addr:street":"Jalan Jenderal Ahmad Yani","brand":"Ace Hardware","brand:wikidata":"Q4672981","name":"Ace Hardware","shop":"doityourself"}},{"type":"node","id":2828409793,"lat":-6.9112658,"lon":107.6275886,"tags":{"brand":"Circle K","brand:wikidata":"Q3268010","name":"Circle K","shop":"convenience"}},{"type":"node","id":3086972331,"lat":-6.9133667,"lon":107.6606808,"tags":{"name":"Superindo","shop":"supermarket"}},{"type":"node","id":3148868097,"lat":-6.9346233,"lon":107.6259242,"tags":{"brand":"Super Indo","brand:wikidata":"Q12518060","name":"Super Indo","shop":"supermarket"}},{"type":"node","id":3261262273,"lat":-6.899106,"lon":107.6235504,"tags":{"addr:city":"Bandung","addr:housenumber":"77","addr:postcode":"40133","addr:street":"Surapati","name":"Bengkel Motor 77","phone":"+62 22 2506755","shop":"motorcycle_repair"}},{"type":"node","id":3424716052,"lat":-6.9066168,"lon":107.6144633,"tags":{"name":"Dcrepes","shop":"pastry"}},{"type":"node","id":3426583581,"lat":-6.9135994,"lon":107.6956572,"tags":{"brand":"Alfamart","brand:wikidata":"Q23745600","brand:wikipedia":"id:Alfamart","name":"Alfamart","name:en":"Alfamart","opening_hours":"Mo-Su 07:00-22:00","operator":"PT Sumber Alfaria Trijaya,Tbk","shop":"convenience","toilets":"yes","toilets:access":"permissive","toilets:unisex":"yes","website":"https://alfamart.co.id"}},{"type":"node","id":3426585959,"lat":-6.9040627,"lon":107.664639,"tags":{"addr:street":"Jalan A.H Nasution","brand":"Yomart","brand:wikidata":"Q19745366","name":"Yomart","shop":"convenience"}},{"type":"node","id":3426585960,"lat":-6.9049041,"lon":107.6777104,"tags":{"name":"Yomart","shop":"supermarket"}},{"type":"node","id":3426586141,"lat":-6.9017966,"lon":107.6530705,"tags":{"brand":"Yomart","brand:wikidata":"Q19745366","name":"Yomart","shop":"convenience"}},{"type":"node","id":3426586142,"lat":-6.9039978,"lon":107.6665883,"tags":{"addr:street":"Jalan A.H Nasution","brand":"Alfamart","brand:wikidata":"Q23745600","brand:wikipedia":"id:Alfamart","name":"Alfamart","name:en":"Alfamart","opening_hours":"Mo-Su 07:00-22:00","operator":"PT Sumber Alfaria Trijaya,Tbk","shop":"convenience","toilets":"yes","toilets:access":"permissive","toilets:unisex":"yes","website":"https://alfamart.co.id"}},{"type":"node","id":3426586143,"lat":-6.9050372,"lon":107.6811244,"tags":{"brand":"Alfamart","brand:wikidata":"Q23745600","brand:wikipedia":"id:Alfamart","name":"Alfamart","name:en":"Alfamart","opening_hours":"Mo-Su 07:00-22:00","operator":"PT Sumber Alfaria Trijaya,Tbk","shop":"convenience","toilets":"yes","toilets:access":"permissive","toilets:unisex":"yes","website":"https://alfamart.co.id"}},{"type":"node","id":3426586144,"lat":-6.9103331,"lon":107.6896145,"tags":{"brand":"Alfamart","brand:wikidata":"Q23745600","brand:wikipedia":"id:Alfamart","name":"Alfamart","name:en":"Alfamart","opening_hours":"Mo-Su 07:00-22:00","operator":"PT Sumber Alfaria Trijaya,Tbk","shop":"convenience","toilets":"yes","toilets:access":"permissive","toilets:unisex":"yes","website":"https://alfamart.co.id"}},{"type":"node","id":3428136630,"lat":-6.9194181,"lon":107.6309069,"tags":{"brand":"Alfamart","brand:wikidata":"Q23745600","brand:wikipedia":"id:Alfamart","name":"Alfamart","name:en":"Alfamart","opening_hours":"Mo-Su 07:00-22:00","operator":"PT Sumber Alfaria Trijaya,Tbk","shop":"convenience","toilets":"yes","toilets:access":"permissive","toilets:unisex":"yes","website":"https://alfamart.co.id"}},{"type":"node","id":3428137125,"lat":-6.9246699,"lon":107.6286091,"tags":{"brand":"Alfamart","brand:wikidata":"Q23745600","brand:wikipedia":"id:Alfamart","name":"Alfamart","name:en":"Alfamart","opening_hours":"Mo-Su 07:00-22:00","operator":"PT Sumber Alfaria Trijaya,Tbk","shop":"convenience","toilets":"yes","toilets:access":"permissive","toilets:unisex":"yes","website":"https://alfamart.co.id"}},{"type":"node","id":3428137126,"lat":-6.9226793,"lon":107.6212111,"tags":{"brand":"Alfamart","brand:wikidata":"Q23745600","brand:wikipedia":"id:Alfamart","name":"Alfamart","name:en":"Alfamart","opening_hours":"Mo-Su 07:00-22:00","operator":"PT Sumber Alfaria Trijaya,Tbk","shop":"convenience","toilets":"yes","toilets:access":"permissive","toilets:unisex":"yes","website":"https://alfamart.co.id"}},{"type":"node","id":3428137195,"lat":-6.9223617,"lon":107.6296437,"tags":{"brand":"Alfamart","brand:wikidata":"Q23745600","brand:wikipedia":"id:Alfamart","name":"Alfamart","name:en":"Alfamart","opening_hours":"Mo-Su 07:00-22:00","operator":"PT Sumber Alfaria Trijaya,Tbk","shop":"convenience","toilets":"yes","toilets:access":"permissive","toilets:unisex":"yes","website":"https://alfamart.co.id"}},{"type":"node","id":3429873166,"lat":-6.9138523,"lon":107.6341539,"tags":{"brand":"Kia","brand:wikidata":"Q35349","name":"Kia","shop":"car"}},{"type":"node","id":3431431591,"lat":-6.9201532,"lon":107.6170115,"tags":{"name":"Bintang Motor","shop":"car"}},{"type":"node","id":3755982113,"lat":-6.9188877,"lon":107.6098597,"tags":{"addr:city":"Bandung","addr:housenumber":"27","addr:street":"Jalan Braga","name":"Sumber Hidangan","shop":"bakery","start_date":"1929"}},{"type":"node","id":3797907556,"lat":-6.9035459,"lon":107.6154133,"tags":{"name":"Bersih Sehat","operator":"Bersih Sehat","shop":"massage"}},{"type":"node","id":3806721272,"lat":-6.8787402,"lon":107.6167701,"tags":{"name":"AB Photo Copy","shop":"copyshop"}},{"type":"node","id":3806721274,"lat":-6.8799394,"lon":107.6164803,"tags":{"addr:city":"Bandung","addr:full":"Jalan Ir. H. Djuanda No. 297","branch":"Dago","brand":"Alfamart","brand:wikidata":"Q23745600","brand:wikipedia":"id:Alfamart","name":"Alfamart","name:en":"Alfamart","opening_hours":"Mo-Su 07:00-22:00","operator":"PT Sumber Alfaria Trijaya,Tbk","shop":"convenience","source":"S2City_POI_2022","toilets":"yes","toilets:access":"permissive","toilets:unisex":"yes","website":"https://alfamart.co.id","wheelchair":"no"}},{"type":"node","id":3806721280,"lat":-6.8776456,"lon":107.6174147,"tags":{"name":"Bike System","shop":"bicycle"}},{"type":"node","id":3806721282,"lat":-6.8850007,"lon":107.6139157,"tags":{"name":"DIMAS Toko Jam Elektronik","shop":"jewelry"}},{"type":"node","id":3806721283,"lat":-6.8777918,"lon":107.6171923,"tags":{"name":"Dago 340 Laundry","shop":"laundry"}},{"type":"node","id":3806721285,"lat":-6.8804713,"lon":107.6163332,"tags":{"name":"Dago Busana Modern","name:en":"Busana Modern","shop":"clothes"}},{"type":"node","id":3806721286,"lat":-6.8849509,"lon":107.613931,"tags":{"name":"Dan's Top's Celular","shop":"mobile_phone"}},{"type":"node","id":3806721287,"lat":-6.8804199,"lon":107.616337,"tags":{"name":"Din Jaya Beauty","shop":"beauty"}},{"type":"node","id":3806721288,"lat":-6.8786063,"lon":107.6168065,"tags":{"name":"Endah Dago ACC","shop":"kiosk"}},{"type":"node","id":3806721289,"lat":-6.8800094,"lon":107.6164577,"tags":{"name":"Global Tour & Travel","name:en":"Global","shop":"travel_agency"}},{"type":"node","id":3806721291,"lat":-6.8788018,"lon":107.6167574,"tags":{"name":"HMT","shop":"doityourself"}},{"type":"node","id":3806721292,"lat":-6.8800683,"lon":107.6164436,"tags":{"name":"Haura","shop":"beauty"}},{"type":"node","id":3806721293,"lat":-6.877817,"lon":107.6171725,"tags":{"name":"Indopedia Tour","shop":"travel_agency"}},{"type":"node","id":3806721301,"lat":-6.8833996,"lon":107.6147516,"tags":{"name":"Nero Net","shop":"computer"}},{"type":"node","id":3806721304,"lat":-6.8830528,"lon":107.6149602,"tags":{"name":"Pangkas Rambut Sesnai","shop":"hairdresser"}},{"type":"node","id":3806721306,"lat":-6.8849013,"lon":107.6139444,"tags":{"name":"Pitstop PS3","shop":"video_games"}},{"type":"node","id":3806721309,"lat":-6.8778549,"lon":107.6171499,"tags":{"name":"Raja Pangkas","shop":"hairdresser"}},{"type":"node","id":3806721310,"lat":-6.8844222,"lon":107.6136004,"tags":{"name":"Salon Memori","shop":"hairdresser"}},{"type":"node","id":3806721311,"lat":-6.8830706,"lon":107.6149502,"tags":{"name":"Sawangi HELM","shop":"outdoor"}},{"type":"node","id":3806721312,"lat":-6.8757734,"lon":107.6182085,"tags":{"name":"Sinar Muria Motor","shop":"car_repair"}},{"type":"node","id":3806721313,"lat":-6.8845143,"lon":107.6140493,"tags":{"name":"Sindeng Sari I","shop":"kiosk"}},{"type":"node","id":3806721314,"lat":-6.8845704,"lon":107.61403,"tags":{"name":"Sindeng Sari II","shop":"kiosk"}},{"type":"node","id":3806721315,"lat":-6.8847931,"lon":107.6139745,"tags":{"name":"TB Cirebon","shop":"kiosk"}},{"type":"node","id":3806721316,"lat":-6.8808685,"lon":107.6162191,"tags":{"name":"TB Dago","name:en":"TB","shop":"doityourself"}},{"type":"node","id":3806721317,"lat":-6.8809561,"lon":107.6161977,"tags":{"name":"TB Hiap Bo","shop":"doityourself"}},{"type":"node","id":3806721318,"lat":-6.8781807,"lon":107.6169292,"tags":{"name":"Toko Achin","shop":"kiosk"}},{"type":"node","id":3806721319,"lat":-6.8844573,"lon":107.6140657,"tags":{"name":"Toko Dago 206","shop":"kiosk"}},{"type":"node","id":3806721320,"lat":-6.8848463,"lon":107.6139592,"tags":{"name":"Toko Mas Chahaya","shop":"jewelry"}},{"type":"node","id":3806721321,"lat":-6.8785783,"lon":107.6168122,"tags":{"name":"Toko Nikmat","shop":"kiosk"}},{"type":"node","id":3806721323,"lat":-6.8829912,"lon":107.6149985,"tags":{"name":"Wedding Galery Rika","shop":"boutique"}},{"type":"node","id":3806721324,"lat":-6.8785362,"lon":107.6168305,"tags":{"name":"Wijaya Laundry","shop":"dry_cleaning"}},{"type":"node","id":3806721326,"lat":-6.8788481,"lon":107.6167461,"tags":{"name":"mycom","shop":"mobile_phone"}},{"type":"node","id":3806722250,"lat":-6.8781262,"lon":107.6169512,"tags":{"shop":"motorcycle"}},{"type":"node","id":3806722663,"lat":-6.8829764,"lon":107.6150075,"tags":{"shop":"hardware"}},{"type":"node","id":3806746616,"lat":-6.8749301,"lon":107.6190022,"tags":{"name":"Donat Madu","shop":"confectionery"}},{"type":"node","id":3806746618,"lat":-6.8749691,"lon":107.6189865,"tags":{"name":"Woody Laundry","shop":"laundry"}},{"type":"node","id":3806758497,"lat":-6.8748716,"lon":107.6190278,"tags":{"name":"Apotek Altpos Dago","shop":"chemist"}},{"type":"node","id":3806758499,"lat":-6.8746486,"lon":107.6191,"tags":{"name":"Hotseat Internet Station","shop":"computer"}},{"type":"node","id":3806758503,"lat":-6.874754,"lon":107.6190636,"tags":{"name":"Warung Hijau","shop":"kiosk"}},{"type":"node","id":3807746622,"lat":-6.8676273,"lon":107.6208714,"tags":{"brand":"Alfamart","brand:wikidata":"Q23745600","brand:wikipedia":"id:Alfamart","name":"Alfamart","name:en":"Alfamart","opening_hours":"Mo-Su 07:00-22:00","operator":"PT Sumber Alfaria Trijaya,Tbk","shop":"convenience","toilets":"yes","toilets:access":"permissive","toilets:unisex":"yes","website":"https://alfamart.co.id"}},{"type":"node","id":3807746624,"lat":-6.8724765,"lon":107.6199735,"tags":{"name":"Battye's cheesecake & desserts","name:en":"Battye's","shop":"confectionery"}},{"type":"node","id":3807746625,"lat":-6.8735014,"lon":107.6195849,"tags":{"name":"Budi Jaya Cell","shop":"mobile_phone"}},{"type":"node","id":3807746626,"lat":-6.873337,"lon":107.6196375,"tags":{"name":"Jaya Abadi","shop":"copyshop"}},{"type":"node","id":3807746628,"lat":-6.8829988,"lon":107.6152587,"tags":{"name":"Kimia Farma Apotek","name:en":"Kimia Farma","shop":"chemist","wikidata":"Q11264892","wikipedia":"en:Kimia Farma"}},{"type":"node","id":3807746633,"lat":-6.8725543,"lon":107.61996,"tags":{"name":"Sinar Furi Photocopy","name:en":"Sinar Furi","shop":"copyshop"}},{"type":"node","id":3807746635,"lat":-6.8724224,"lon":107.6199778,"tags":{"name":"Toko A.Yoss","shop":"kiosk"}},{"type":"node","id":3807746636,"lat":-6.8733712,"lon":107.6196243,"tags":{"name":"Toko Berkat Doa","shop":"kiosk"}},{"type":"node","id":3807746637,"lat":-6.8681396,"lon":107.6208995,"tags":{"name":"Vcafe","shop":"coffee"}},{"type":"node","id":3807746640,"lat":-6.8725885,"lon":107.6199566,"tags":{"name":"Wenny's Gemstone","name:en":"Wenny's","shop":"jewelry"}},{"type":"node","id":3807746641,"lat":-6.8726868,"lon":107.6199144,"tags":{"name":"XTRA Laundry & Dry Cleaning","name:en":"Xtra","shop":"laundry"}},{"type":"node","id":3808509435,"lat":-6.9161836,"lon":107.6326335,"tags":{"name":"Toko Saudara Kita","shop":"copyshop"}},{"type":"node","id":3809369308,"lat":-6.8679228,"lon":107.6204165,"tags":{"name":"Bio Clean Laundry","shop":"laundry"}},{"type":"node","id":3809369309,"lat":-6.8668241,"lon":107.6207766,"tags":{"name":"Campions Juice","shop":"kiosk"}},{"type":"node","id":3809369310,"lat":-6.8678667,"lon":107.6204346,"tags":{"name":"Dago Petshop & Groom","name:en":"Petshop & Groom","shop":"pet"}},{"type":"node","id":3809369312,"lat":-6.866567,"lon":107.620848,"tags":{"name":"Glory Petshop","shop":"pet"}},{"type":"node","id":3809369313,"lat":-6.8667107,"lon":107.6208096,"tags":{"name":"H2O Cell","shop":"mobile_phone"}},{"type":"node","id":3809369315,"lat":-6.8673587,"lon":107.6205289,"tags":{"name":"Los Jaya","shop":"doityourself"}},{"type":"node","id":3809369317,"lat":-6.8667713,"lon":107.6207834,"tags":{"name":"Pangkas Rambut Nizma","shop":"hairdresser"}},{"type":"node","id":3809369318,"lat":-6.8666433,"lon":107.6208243,"tags":{"name":"Syifa Madu Dayakan","shop":"kiosk"}},{"type":"node","id":3809369319,"lat":-6.8677252,"lon":107.6204956,"tags":{"name":"TOPS MOTOR","shop":"motorcycle"}},{"type":"node","id":3809369321,"lat":-6.8666152,"lon":107.6208345,"tags":{"name":"Toko ARBI","shop":"kiosk"}},{"type":"node","id":3809369322,"lat":-6.8667977,"lon":107.6207783,"tags":{"name":"Toko Azky","shop":"kiosk"}},{"type":"node","id":3809369323,"lat":-6.8738412,"lon":107.6191657,"tags":{"name":"Toko D'LEGIET","name:en":"Toko D'Legiet","shop":"kiosk"}},{"type":"node","id":3809369324,"lat":-6.8664817,"lon":107.620865,"tags":{"name":"Toko Diffa","shop":"kiosk"}},{"type":"node","id":3809369325,"lat":-6.8678083,"lon":107.6204843,"tags":{"name":"Toko Los Jaya","shop":"doityourself"}},{"type":"node","id":3809369326,"lat":-6.8666725,"lon":107.6208175,"tags":{"name":"Toko Pusake","shop":"kiosk"}},{"type":"node","id":3809369328,"lat":-6.8665344,"lon":107.6208514,"tags":{"name":"Wartel KEYKEY","shop":"computer"}},{"type":"node","id":3809398430,"lat":-6.8772971,"lon":107.6175519,"tags":{"name":"Perlangkapan & Oleh2 Haji & Umuroh","shop":"variety_store"}},{"type":"node","id":3809666111,"lat":-6.9382684,"lon":107.6190544,"tags":{"air_conditioning":"yes","brand":"Indomaret","brand:wikidata":"Q4262825","brand:wikipedia":"id:Indomaret","name":"Indomaret","name:en":"Indomaret","name:id":"Indomaret","name:ja":"インドマレット","opening_hours":"Mo-Su 07:00-22:00","operator":"PT. Indomarco Prismatama","payment:cash":"yes","payment:contactless":"yes","payment:credit_cards":"yes","payment:debit_cards":"yes","payment:electronic_purses":"no","shop":"convenience","toilets":"yes","toilets:access":"permissive","website":"https://www.klikindomaret.com"}},{"type":"node","id":3813683619,"lat":-6.9045465,"lon":107.6037254,"tags":{"addr:city":"Bandung, Jawa Barat","addr:housenumber":"7","addr:street":"Jl. Dr. Abdul Rivai","brand":"Holland Bakery","brand:wikidata":"Q19726345","name":"Holland Bakery","opening_hours":"Mo-Su 07:00-23:00","shop":"bakery"}},{"type":"node","id":3813685773,"lat":-6.9068306,"lon":107.6045393,"tags":{"brand":"Hyundai","brand:wikidata":"Q55931","name":"Hyundai","shop":"car"}},{"type":"node","id":3817206577,"lat":-6.9193276,"lon":107.6153555,"tags":{"brand":"Alfamart","brand:wikidata":"Q23745600","brand:wikipedia":"id:Alfamart","name":"Alfamart","name:en":"Alfamart","opening_hours":"Mo-Su 07:00-22:00","operator":"PT Sumber Alfaria Trijaya,Tbk","shop":"convenience","toilets":"yes","toilets:access":"permissive","toilets:unisex":"yes","website":"https://alfamart.co.id"}},{"type":"node","id":3817206578,"lat":-6.9194462,"lon":107.6155548,"tags":{"clothes":"children","name":"Modekids","shop":"clothes"}},{"type":"node","id":3817206788,"lat":-6.9214958,"lon":107.6192977,"tags":{"shop":"car"}},{"type":"node","id":3818319845,"lat":-6.902813,"lon":107.5973733,"tags":{"addr:city":"Bandung, Jawa Barat","addr:housenumber":"168","addr:street":"Jalan Pasirkaliki","name":"Prima Rasa","shop":"bakery"}},{"type":"node","id":3869649933,"lat":-6.9419223,"lon":107.6673901,"tags":{"addr:city":"Bandung","addr:street":"Venus Raya","brand":"Yomart","brand:wikidata":"Q19745366","name":"Yomart","operator":"Toserba Yogya","shop":"convenience"}},{"type":"node","id":4038556768,"lat":-6.8711921,"lon":107.5939664,"tags":{"name":"Setiabudi Daihatsu Astra International","operator":"Astra International","shop":"car"}},{"type":"node","id":4038566617,"lat":-6.85857,"lon":107.5946023,"tags":{"name":"Yomart","shop":"convenience"}},{"type":"node","id":4081103090,"lat":-6.9013861,"lon":107.5962662,"tags":{"brand":"Alfamart","brand:wikidata":"Q23745600","brand:wikipedia":"id:Alfamart","name":"Alfamart","name:en":"Alfamart","opening_hours":"Mo-Su 07:00-22:00","operator":"PT Sumber Alfaria Trijaya,Tbk","phone":"+62 81585463549","shop":"convenience","toilets":"yes","toilets:access":"permissive","toilets:unisex":"yes","website":"https://alfamart.co.id"}},{"type":"node","id":4081160186,"lat":-6.9005058,"lon":107.5967658,"tags":{"addr:city":"Bandung, Jawa Barat","addr:housenumber":"185-189","addr:street":"Jalan Pasirkaliki","name":"Beermart","opening_hours":"Mo-Su 08:00-22:00","shop":"alcohol"}},{"type":"node","id":4084462215,"lat":-6.8932001,"lon":107.6052024,"tags":{"name":"Trinity","shop":"electronics"}},{"type":"node","id":4084462216,"lat":-6.8933013,"lon":107.6051976,"tags":{"name":"Maximilian","shop":"clothes"}},{"type":"node","id":4090158012,"lat":-6.8936042,"lon":107.6055955,"tags":{"name":"K Town","shop":"clothes"}},{"type":"node","id":4121539589,"lat":-6.9338248,"lon":107.6971453,"tags":{"name":"반둥시장","shop":"clothes"}},{"type":"node","id":4143005390,"lat":-6.9434333,"lon":107.6815225,"tags":{"addr:street":"Soekarno-Hatta","brand":"Yomart","brand:wikidata":"Q19745366","name":"Yomart","shop":"convenience"}},{"type":"node","id":4143005393,"lat":-6.931515,"lon":107.6432437,"tags":{"addr:street":"Jalan Kiara Condong","name":"TOKO CD BINONG","shop":"gift"}},{"type":"node","id":4143005491,"lat":-6.9448618,"lon":107.6418056,"tags":{"name":"PD.NITA","shop":"books"}},{"type":"node","id":4143005595,"lat":-6.9344767,"lon":107.6429838,"tags":{"addr:street":"Jalan Ibrahim Adji","name":"DEALER YAMAHA FORTUNA","shop":"car"}},{"type":"node","id":4143009215,"lat":-6.9324509,"lon":107.6545159,"tags":{"addr:street":"Jalan Raya Kiara Asri","air_conditioning":"yes","brand":"Indomaret","brand:wikidata":"Q4262825","brand:wikipedia":"id:Indomaret","name":"Indomaret","name:en":"Indomaret","name:id":"Indomaret","name:ja":"インドマレット","opening_hours":"Mo-Su 07:00-22:00","operator":"PT. Indomarco Prismatama","payment:cash":"yes","payment:contactless":"yes","payment:credit_cards":"yes","payment:debit_cards":"yes","payment:electronic_purses":"no","shop":"convenience","toilets":"yes","toilets:access":"permissive","website":"https://www.klikindomaret.com"}},{"type":"node","id":4143020504,"lat":-6.928128,"lon":107.6370022,"tags":{"addr:street":"Jalan Gatot Subroto","air_conditioning":"yes","brand":"Indomaret","brand:wikidata":"Q4262825","brand:wikipedia":"id:Indomaret","name":"Indomaret","name:en":"Indomaret","name:id":"Indomaret","name:ja":"インドマレット","opening_hours":"Mo-Su 07:00-22:00","operator":"PT. Indomarco Prismatama","payment:cash":"yes","payment:contactless":"yes","payment:credit_cards":"yes","payment:debit_cards":"yes","payment:electronic_purses":"no","shop":"convenience","toilets":"yes","toilets:access":"permissive","website":"https://www.klikindomaret.com"}},{"type":"node","id":4143026597,"lat":-6.9435883,"lon":107.6771995,"tags":{"name":"Toko Jamu","shop":"alcohol"}},{"type":"node","id":4143026600,"lat":-6.9442907,"lon":107.6417939,"tags":{"addr:street":"Jalan Ibrahim Adji","brand":"Alfamart","brand:wikidata":"Q23745600","brand:wikipedia":"id:Alfamart","name":"Alfamart","name:en":"Alfamart","opening_hours":"Mo-Su 07:00-22:00","operator":"PT Sumber Alfaria Trijaya,Tbk","shop":"convenience","toilets":"yes","toilets:access":"permissive","toilets:unisex":"yes","website":"https://alfamart.co.id"}},{"type":"node","id":4143027491,"lat":-6.9367946,"lon":107.6578288,"tags":{"addr:street":"Jalan Raya Kawaluyaan","brand":"Alfamart","brand:wikidata":"Q23745600","brand:wikipedia":"id:Alfamart","name":"Alfamart","name:en":"Alfamart","opening_hours":"Mo-Su 07:00-22:00","operator":"PT Sumber Alfaria Trijaya,Tbk","shop":"convenience","toilets":"yes","toilets:access":"permissive","toilets:unisex":"yes","website":"https://alfamart.co.id"}},{"type":"node","id":4143027492,"lat":-6.9140956,"lon":107.6613256,"tags":{"addr:street":"Jalan Terusan Jakarta","brand":"Alfamart","brand:wikidata":"Q23745600","brand:wikipedia":"id:Alfamart","name":"Alfamart","name:en":"Alfamart","opening_hours":"Mo-Su 07:00-22:00","operator":"PT Sumber Alfaria Trijaya,Tbk","shop":"convenience","toilets":"yes","toilets:access":"permissive","toilets:unisex":"yes","website":"https://alfamart.co.id"}},{"type":"node","id":4143027992,"lat":-6.9387802,"lon":107.6635394,"tags":{"addr:street":"Jalan Soekarno-Hatta","name":"DEALER YAMAHA","shop":"car"}},{"type":"node","id":4143033512,"lat":-6.9383132,"lon":107.6543632,"tags":{"brand":"Alfamart","brand:wikidata":"Q23745600","brand:wikipedia":"id:Alfamart","name":"Alfamart","name:en":"Alfamart","opening_hours":"Mo-Su 07:00-22:00","operator":"PT Sumber Alfaria Trijaya,Tbk","shop":"convenience","toilets":"yes","toilets:access":"permissive","toilets:unisex":"yes","website":"https://alfamart.co.id"}},{"type":"node","id":4143041690,"lat":-6.9428949,"lon":107.6796136,"tags":{"addr:street":"Soekarno-Hatta","name":"loandry ken cling","shop":"laundry"}},{"type":"node","id":4143042089,"lat":-6.9439088,"lon":107.6816132,"tags":{"brand":"Alfamart","brand:wikidata":"Q23745600","name":"Alfamart","operator":"PT Sumber Alfaria Trijaya,Tbk","shop":"convenience","toilets":"yes","toilets:access":"permissive","toilets:unisex":"yes","website":"https://alfamart.co.id"}},{"type":"node","id":4143042090,"lat":-6.9412376,"lon":107.6556326,"tags":{"name":"METRO FURNITURE","shop":"furniture"}},{"type":"node","id":4143042092,"lat":-6.9136745,"lon":107.645688,"tags":{"addr:street":"Jalan Terusan Jakarta","name":"Amanda Brownies","shop":"bakery"}},{"type":"node","id":4143042093,"lat":-6.9256782,"lon":107.6446051,"tags":{"name":"TOKO BANTENG","name:en":"Toko Banteng","shop":"alcohol"}},{"type":"node","id":4143046690,"lat":-6.9311681,"lon":107.654629,"tags":{"brand":"Alfamart","brand:wikidata":"Q23745600","brand:wikipedia":"id:Alfamart","name":"Alfamart","name:en":"Alfamart","opening_hours":"Mo-Su 07:00-22:00","operator":"PT Sumber Alfaria Trijaya,Tbk","shop":"convenience","toilets":"yes","toilets:access":"permissive","toilets:unisex":"yes","website":"https://alfamart.co.id"}},{"type":"node","id":4143046691,"lat":-6.9155023,"lon":107.667429,"tags":{"addr:street":"Jalan Terusan Jakarta","brand":"Alfamart","brand:wikidata":"Q23745600","brand:wikipedia":"id:Alfamart","name":"Alfamart","name:en":"Alfamart","opening_hours":"Mo-Su 07:00-22:00","operator":"PT Sumber Alfaria Trijaya,Tbk","shop":"convenience","toilets":"yes","toilets:access":"permissive","toilets:unisex":"yes","website":"https://alfamart.co.id"}},{"type":"node","id":4143048390,"lat":-6.912639,"lon":107.655039,"tags":{"addr:street":"Jalan Terusan Jakarta","air_conditioning":"yes","branch":"Plus","brand":"Indomaret","brand:wikidata":"Q4262825","brand:wikipedia":"id:Indomaret","name":"Indomaret","name:en":"Indomaret","name:id":"Indomaret","name:ja":"インドマレット","opening_hours":"Mo-Su 07:00-22:00","operator":"PT. Indomarco Prismatama","payment:cash":"yes","payment:contactless":"yes","payment:credit_cards":"yes","payment:debit_cards":"yes","payment:electronic_purses":"no","shop":"convenience","toilets":"yes","toilets:access":"permissive","website":"https://www.klikindomaret.com"}},{"type":"node","id":4150274993,"lat":-6.9087409,"lon":107.6269569,"tags":{"addr:city":"Bandung","addr:full":"Jl. Bengawan No. 65, Cihapit, Bandung Wetan","air_conditioning":"yes","brand":"Indomaret","brand:wikidata":"Q4262825","brand:wikipedia":"id:Indomaret","name":"Indomaret","name:en":"Indomaret","name:id":"Indomaret","name:ja":"インドマレット","opening_hours":"Mo-Su 07:00-22:00","operator":"PT. Indomarco Prismatama","payment:cash":"yes","payment:contactless":"yes","payment:credit_cards":"yes","payment:debit_cards":"yes","payment:electronic_purses":"no","shop":"convenience","source":"S2City_POI_2022","toilets":"yes","toilets:access":"permissive","website":"https://www.klikindomaret.com"}},{"type":"node","id":4150283191,"lat":-6.920388,"lon":107.612482,"tags":{"addr:street":"Jalan Naripan","name":"ASTRA CREDIT COMPANIES","shop":"car_repair"}},{"type":"node","id":4168931237,"lat":-6.8901609,"lon":107.5954131,"tags":{"brand":"Marks & Spencer","brand:wikidata":"Q714491","brand:wikipedia":"en:Marks & Spencer","name":"Marks & Spencer","shop":"department_store"}},{"type":"node","id":4168931238,"lat":-6.890354,"lon":107.5958951,"tags":{"name":"Sogo","shop":"department_store"}},{"type":"node","id":4168931239,"lat":-6.8883569,"lon":107.5957414,"tags":{"brand":"Topshop","brand:wikidata":"Q1893576","brand:wikipedia":"en:Topshop","name":"Topshop","shop":"clothes"}},{"type":"node","id":4168931240,"lat":-6.8884219,"lon":107.595743,"tags":{"name":"Topman","shop":"clothes"}},{"type":"node","id":4168931241,"lat":-6.8881386,"lon":107.5958546,"tags":{"brand":"H&M","brand:wikidata":"Q188326","brand:wikipedia":"en:H&M","name":"H&M","shop":"clothes"}},{"type":"node","id":4168931242,"lat":-6.8888371,"lon":107.5957603,"tags":{"name":"Quicksilver","shop":"clothes"}},{"type":"node","id":4168931243,"lat":-6.8882796,"lon":107.5957959,"tags":{"brand":"Zara","brand:wikidata":"Q147662","brand:wikipedia":"en:Zara (retailer)","name":"Zara","shop":"clothes"}},{"type":"node","id":4168931244,"lat":-6.8897822,"lon":107.5958188,"tags":{"brand":"Nike","brand:wikidata":"Q483915","brand:wikipedia":"en:Nike, Inc.","name":"Nike","shop":"clothes"}},{"type":"node","id":4168931245,"lat":-6.8896875,"lon":107.5958128,"tags":{"name":"Urban Icon","shop":"clothes"}},{"type":"node","id":4168931246,"lat":-6.8895287,"lon":107.5958045,"tags":{"name":"SuperDry","shop":"fashion"}},{"type":"node","id":4168931247,"lat":-6.8892193,"lon":107.595776,"tags":{"brand":"Mango","brand:wikidata":"Q136503","brand:wikipedia":"en:Mango (retailer)","name":"Mango","shop":"clothes"}},{"type":"node","id":4168931248,"lat":-6.8891524,"lon":107.5957721,"tags":{"brand":"Adidas","brand:wikidata":"Q3895","brand:wikipedia":"en:Adidas","name":"Adidas","shop":"sports"}},{"type":"node","id":4168931249,"lat":-6.8890914,"lon":107.5957714,"tags":{"brand":"La Senza","brand:wikidata":"Q3212802","brand:wikipedia":"en:La Senza","name":"La Senza","shop":"clothes"}},{"type":"node","id":4168931250,"lat":-6.8888962,"lon":107.595764,"tags":{"brand":"Promod","brand:wikidata":"Q3407429","brand:wikipedia":"en:Promod","name":"Promod","shop":"clothes"}},{"type":"node","id":4169455682,"lat":-6.8811456,"lon":107.5869526,"tags":{"name":"Toko","shop":"kiosk"}},{"type":"node","id":4169459159,"lat":-6.8810656,"lon":107.5863443,"tags":{"name":"Toko","shop":"kiosk"}},{"type":"node","id":4177773698,"lat":-6.8989743,"lon":107.620941,"tags":{"addr:housenumber":"61","addr:street":"Jalan Surapati","brand":"House of Hoops","brand:wikidata":"Q108232933","name":"House of Hoops","official_name":"House of Hoops by Foot Locker","shop":"shoes"}},{"type":"node","id":4191518820,"lat":-6.9198193,"lon":107.6034551,"tags":{"name":"Waroeng Jeans","shop":"fashion"}},{"type":"node","id":4256156964,"lat":-6.8829227,"lon":107.5995559,"tags":{"addr:city":"Bandung","addr:housenumber":"#41","addr:postcode":"40161","addr:street":"Jalan Dr. Setiabudi","name":"Rumah Mode","shop":"fashion"}},{"type":"node","id":4256167391,"lat":-6.9170486,"lon":107.6084817,"tags":{"addr:city":"Bandung","addr:housenumber":"99-101","addr:postcode":"40111","addr:street":"Jalan Braga","air_conditioning":"yes","alt_name":"Braga City Walk","contact:facebook":"https://www.facebook.com/bragacitywalk","contact:instagram":"bragacitywalk","contact:phone":"+62 212-2545456","contact:twitter":"braga_citywalk","contact:whatsapp":"+62 888-0637-8884","name":"Braga Citywalk","operator":"PT Bangun Mitra Mandiri","shop":"mall","website":"https://bragacitywalk.co.id/"}},{"type":"node","id":4256421918,"lat":-6.911656,"lon":107.5997882,"tags":{"addr:city":"Bandung","addr:housenumber":"#4","addr:postcode":"40171","addr:street":"Jalan Haji Akbar","name":"Kartika Sari Kebon Kawung","shop":"bakery"}},{"type":"node","id":4259738885,"lat":-6.9062897,"lon":107.6148131,"tags":{"addr:city":"Bandung","addr:housenumber":"47","addr:postcode":"40115","addr:street":"Jalan R.E. Martadinata","name":"The Secret Factory Outlet","shop":"clothes"}},{"type":"node","id":4259882645,"lat":-6.9064549,"lon":107.6164208,"tags":{"addr:city":"Bandung","addr:housenumber":"#36","addr:street":"Jalan R.E. Martadinata","name":"buttonscarves","shop":"clothes"}},{"type":"node","id":4259913603,"lat":-6.9067259,"lon":107.6151135,"tags":{"addr:city":"Bandung","addr:housenumber":"26","addr:postcode":"40115","addr:street":"Jalan R.E. Martadinata","name":"D' Fashion","shop":"clothes"}},{"type":"node","id":4260056827,"lat":-6.8945181,"lon":107.6041356,"tags":{"addr:city":"Bandung","addr:housenumber":"#168","addr:postcode":"40131","addr:street":"Jalan Cihampelas","name":"Korek Api Jeans","shop":"clothes"}},{"type":"node","id":4260064131,"lat":-6.9044113,"lon":107.6110125,"tags":{"addr:city":"Bandung","addr:district":"Coblong","addr:housenumber":"#181","addr:postcode":"40135","addr:province":"Jawa Barat","addr:street":"Jalan Ir. H. Juanda","addr:subdistrict":"Lebakgede","name":"Blossom Family Outlet","payment:cash":"yes","payment:credit_cards":"yes","payment:debit_cards":"yes","shop":"fashion"}},{"type":"node","id":4260211694,"lat":-6.8620585,"lon":107.5963497,"tags":{"addr:city":"Bandung","addr:housenumber":"#45","addr:postcode":"40161","addr:street":"Jalan Dr. Setiabudi","name":"House of Donatello","shop":"clothes"}},{"type":"node","id":4261926768,"lat":-6.8755371,"lon":107.5969796,"tags":{"addr:city":"Bandung","addr:housenumber":"#61A","addr:postcode":"40153","addr:street":"Jalan Dr. Setiabudi","name":"Lafayette","shop":"fashion"}},{"type":"node","id":4261944298,"lat":-6.9046357,"lon":107.6109598,"tags":{"addr:city":"Bandung","addr:housenumber":"#14","addr:postcode":"40115","addr:street":"Jalan Ir. H. Juanda","name":"Rich & Famous","shop":"fashion"}},{"type":"node","id":4261949219,"lat":-6.8977603,"lon":107.6150671,"tags":{"addr:city":"Bandung","addr:housenumber":"#125","addr:postcode":"40132","addr:street":"Jalan Ir. H. Juanda","name":"Episode","shop":"fashion"}},{"type":"node","id":4320645402,"lat":-6.9166942,"lon":107.6138156,"tags":{"addr:city":"Bandung","addr:housenumber":"22","addr:street":"Jalan Sumatra","name":"Bodypack Store","shop":"clothes"}},{"type":"node","id":4320669974,"lat":-6.8796669,"lon":107.5965048,"tags":{"addr:city":"Bandung","addr:housenumber":"228","addr:street":"Jalan Sukajadi","name":"Mayfair","shop":"fashion"}},{"type":"node","id":4320682284,"lat":-6.8791802,"lon":107.5974537,"tags":{"addr:housenumber":"1","addr:street":"Jalan Sukaasih Raya","name":"Papaya Fresh Gallery Bandung","shop":"supermarket"}},{"type":"node","id":4322891490,"lat":-6.9262571,"lon":107.6194804,"tags":{"name":"Escode","shop":"beauty"}},{"type":"node","id":4322891594,"lat":-6.9272851,"lon":107.62267,"tags":{"name":"Escode","shop":"beauty"}},{"type":"node","id":4326492493,"lat":-6.9123323,"lon":107.6002998,"tags":{"addr:city":"Bandung","addr:housenumber":"44","addr:street":"Pasir Kaliki Jl. Kebon Kawung, Pasir Kaliki, Cicendo","air_conditioning":"yes","branch":"Kebon Kawung","brand":"Indomaret","brand:wikidata":"Q4262825","brand:wikipedia":"id:Indomaret","name":"Indomaret","name:en":"Indomaret","name:id":"Indomaret","name:ja":"インドマレット","opening_hours":"Mo-Su 07:00-22:00","operator":"PT. Indomarco Prismatama","payment:cash":"yes","payment:contactless":"yes","payment:credit_cards":"yes","payment:debit_cards":"yes","payment:electronic_purses":"no","shop":"convenience","toilets":"yes","toilets:access":"permissive","website":"https://www.klikindomaret.com"}},{"type":"node","id":4326497219,"lat":-6.9122914,"lon":107.599997,"tags":{"addr:city":"Bandung","addr:street":"Jl. Kebon Kawung, Pasir Kaliki, Cicendo","name":"Batagor Riri","shop":"bakery"}},{"type":"node","id":4326537522,"lat":-6.9105531,"lon":107.6041785,"tags":{"addr:city":"Bandung","addr:housenumber":"2-A","addr:street":"Jl. Cicendo , Pasir Kaliki, Cicendo","name":"Cicendo Optical","name:en":"Cicendo","shop":"optician"}},{"type":"node","id":4326629121,"lat":-6.9039258,"lon":107.6139279,"tags":{"addr:city":"Citarum, Bandung Wetan, Kota Bandung, Jawa Barat","addr:street":"Jl. Wira Angun Angun","name":"Arromanis Corner Store","shop":"art"}},{"type":"node","id":4326634318,"lat":-6.9225073,"lon":107.6175479,"tags":{"addr:city":"Bandung, Jawa Barat","addr:housenumber":"188","addr:street":"Perempatan Lima","name":"Lekker 188 Coffee & Foodhub","shop":"coffee"}},{"type":"node","id":4326827556,"lat":-6.9153446,"lon":107.6531264,"tags":{"addr:city":"Antapani Kidul, Antapani, Kota Bandung, Jawa Barat","addr:housenumber":"66","addr:street":"Jl. Purwakarta","name":"Sunny Side Coffee","operator":"Coffee Shop","shop":"coffee"}},{"type":"node","id":4326846007,"lat":-6.9264219,"lon":107.6196252,"tags":{"addr:city":"Burangrang, Kota Bandung, Jawa Barat","addr:housenumber":"2","addr:street":"Jl. Wayang","name":"Poffstory Coffee Brewer","shop":"coffee"}},{"type":"node","id":4326876608,"lat":-6.8989337,"lon":107.6113451,"tags":{"addr:city":"Bandung, Jawa Barat","addr:housenumber":"7","addr:street":"Jl. Cikapayang , Tamansari, Bandung Wetan","name":"Zoom Pet Care","shop":"pet"}},{"type":"node","id":4327154561,"lat":-6.8824811,"lon":107.5760189,"tags":{"addr:city":"Bandung","addr:street":"Jl. Sariwangi, Sukawarna, Sukajadi","name":"Yomart","shop":"supermarket"}},{"type":"node","id":4327169357,"lat":-6.8753648,"lon":107.6043455,"tags":{"addr:city":"Bandung","addr:housenumber":"28","addr:street":"JL. Ciumbuleuit","name":"Mega Pet Shop","shop":"pet"}},{"type":"node","id":4327181160,"lat":-6.9666746,"lon":107.5733847,"tags":{"addr:city":"Bandung, Jawa Barat","addr:housenumber":"4","addr:street":"Jl. Taman Kopo Indah I","name":"Kopo Factory Outlet","shop":"supermarket"}},{"type":"node","id":4327183392,"lat":-6.9662804,"lon":107.5718938,"tags":{"addr:city":"Bandung, Jawa Barat","addr:housenumber":"6","addr:street":"Jalan Taman Kopo Indah Blok 1A","name":"PD. Pasir Kaliki","shop":"supermarket"}},{"type":"node","id":4327203234,"lat":-6.8782562,"lon":107.6035876,"tags":{"addr:city":"Bandung","addr:street":"Jl. Ciumbuleuit, Hegarmanah, Cidadap","name":"Yomart","shop":"supermarket"}},{"type":"node","id":4327217286,"lat":-6.9534741,"lon":107.562443,"tags":{"addr:city":"Bandung","addr:street":"Komplek Taman Kopo Indah, Business Park Blok A1, Jl. Taman Kopo Indah II","name":"ACE HARDWARE","shop":"supermarket"}},{"type":"node","id":4327886664,"lat":-6.9124632,"lon":107.5779638,"tags":{"addr:city":"Bandung, Jawa Barat","addr:street":"Dungus Cariang, Andir","name":"Toserba Ling Chick","operator":"Toserba","shop":"supermarket"}},{"type":"node","id":4327899022,"lat":-6.9115843,"lon":107.5781787,"tags":{"addr:city":"Bandung, Jawa Barat","addr:housenumber":"75-77","addr:street":"Jl. Garuda, Dungus Cariang, Andir","name":"Mr.Kitchen - hotel & restaurant supplies","shop":"kitchen"}},{"type":"node","id":4327955163,"lat":-6.8803453,"lon":107.5965355,"tags":{"addr:city":"Pasteur, Sukajadi, Bandung, Jawa Barat","addr:street":"Jl. Sukajadi","name":"Pet Distro","shop":"pet"}},{"type":"node","id":4327988456,"lat":-6.8938625,"lon":107.586604,"tags":{"addr:city":"Bandung","addr:housenumber":"135H","addr:street":"Jl. Dr. Djunjunan","name":"Tahu Susu Lembang","shop":"yes"}},{"type":"node","id":4327998437,"lat":-6.9070735,"lon":107.592171,"tags":{"addr:city":"Bandung","addr:housenumber":"92","addr:street":"Jl. Pajajaran","name":"Gracia Florist","shop":"florist"}},{"type":"node","id":4328012884,"lat":-6.9248368,"lon":107.6291917,"tags":{"addr:city":"Bandung","addr:housenumber":"173","addr:street":"Jl. Jendral Gatot Subroto","name":"Fellen","shop":"pastry"}},{"type":"node","id":4328089461,"lat":-6.9095613,"lon":107.597889,"tags":{"addr:city":"Bandung, Jawa Barat","addr:housenumber":"92","addr:street":"Jl. Pasirkaliki , Pasir Kaliki","name":"Hoby Mokit","shop":"toys"}},{"type":"node","id":4328111002,"lat":-6.9162559,"lon":107.597422,"tags":{"addr:city":"Bandung, Jawa Barat","addr:housenumber":"130","addr:street":"Jl. Kb. Jati , Kb. Jeruk, Andir","name":"Rumah Duka Permaba","shop":"funeral_directors"}},{"type":"node","id":4328126525,"lat":-6.9177399,"lon":107.5983598,"tags":{"addr:city":"Bandung, Jawa Barat","addr:housenumber":"66","addr:street":"Jl. Gardujati , Astanaanyar","branch":"Gardujati","brand":"Holland Bakery","brand:wikidata":"Q19726345","name":"Holland Bakery","name:en":"Holland Bakery","shop":"bakery"}},{"type":"node","id":4328127021,"lat":-6.9174378,"lon":107.5983135,"tags":{"addr:city":"Bandung, Jawa Barat","addr:housenumber":"78","addr:street":"Jl. Gardujati , Kb. Jeruk","name":"Gardu Jati Optical","name:en":"Gardu Jati","shop":"optician"}},{"type":"node","id":4328129877,"lat":-6.9192613,"lon":107.5906253,"tags":{"addr:city":"Bandung","addr:housenumber":"395","addr:street":"Jl. Jendral Sudirman","name":"Yessika Roti","shop":"bakery"}},{"type":"node","id":4328133603,"lat":-6.9178303,"lon":107.5981862,"tags":{"addr:city":"Bandung, Jawa Barat","addr:housenumber":"63","addr:street":"Jl. Gardujati","name":"Fafa Bapau","shop":"bakery"}},{"type":"node","id":4328150160,"lat":-6.9442563,"lon":107.6056477,"tags":{"addr:city":"Bandung","addr:housenumber":"47-49","addr:street":"Jalan Karasak","name":"Vitasari Bakery","name:en":"VITASARI","shop":"bakery"}},{"type":"node","id":4328154174,"lat":-6.9210534,"lon":107.5946675,"tags":{"addr:city":"Bandung","addr:housenumber":"237","addr:street":"Jalan Cibadak","name":"Kedai Kopi Bara","shop":"coffee"}},{"type":"node","id":4328188598,"lat":-6.8878993,"lon":107.6132494,"tags":{"addr:city":"Bandung","addr:housenumber":"155","addr:street":"Jl. Ir. H.Djuanda","name":"Caffe Bene","shop":"coffee"}},{"type":"node","id":4328223377,"lat":-6.8914487,"lon":107.5815607,"tags":{"addr:city":"Bandung","addr:housenumber":"4","addr:street":"Jalan Surya Sumantri","name":"BarBerBos","shop":"hairdresser"}},{"type":"node","id":4328237174,"lat":-6.9374251,"lon":107.5991726,"tags":{"addr:city":"Bandung","addr:housenumber":"66A","addr:street":"Jl. Peta","name":"Fenyen Auto Accecories","shop":"car_parts"}},{"type":"node","id":4328239976,"lat":-6.9376625,"lon":107.5996701,"tags":{"addr:city":"Bandung","addr:street":"Jl. Peta","name":"Prima Rasa Bakery Pastry","shop":"bakery"}},{"type":"node","id":4329271891,"lat":-6.9121609,"lon":107.627911,"tags":{"addr:city":"Bandung","addr:housenumber":"140","addr:street":"Jl. L. L. RE.Martadinata","name":"Bawean Bakery & Resto","name:en":"Bawean","shop":"bakery"}},{"type":"node","id":4329277688,"lat":-6.9124687,"lon":107.6287389,"tags":{"addr:city":"Bandung","addr:housenumber":"199","addr:street":"Jalan Laks. Re. Martadinata","name":"The Original Viking Fanshop","shop":"yes"}},{"type":"node","id":4329438002,"lat":-6.8994349,"lon":107.6344945,"tags":{"addr:city":"Bandung","addr:housenumber":"3","addr:street":"Jl. Sukasenang V , Cikutra, Cibeunying Kidul","name":"Kitharra Guitar Shop","shop":"musical_instrument"}},{"type":"node","id":4329546428,"lat":-6.8926293,"lon":107.6350318,"tags":{"addr:city":"Bandung","addr:housenumber":"990","addr:street":"Jl. Sido Mukti , Sukaluyu","brand":"Alfamart","brand:wikidata":"Q23745600","brand:wikipedia":"id:Alfamart","name":"Alfamart","name:en":"Alfamart","opening_hours":"Mo-Su 07:00-22:00","operator":"PT Sumber Alfaria Trijaya,Tbk","shop":"convenience","toilets":"yes","toilets:access":"permissive","toilets:unisex":"yes","website":"https://alfamart.co.id"}},{"type":"node","id":4329561846,"lat":-6.8936239,"lon":107.638084,"tags":{"addr:city":"Bandung","addr:street":"Jl. Cikutra, Neglasari, Cibeunying Kaler","air_conditioning":"yes","brand":"Indomaret","brand:wikidata":"Q4262825","brand:wikipedia":"id:Indomaret","name":"Indomaret","name:en":"Indomaret","name:id":"Indomaret","name:ja":"インドマレット","opening_hours":"Mo-Su 07:00-22:00","operator":"PT. Indomarco Prismatama","payment:cash":"yes","payment:contactless":"yes","payment:credit_cards":"yes","payment:debit_cards":"yes","payment:electronic_purses":"no","shop":"convenience","toilets":"yes","toilets:access":"permissive","website":"https://www.klikindomaret.com"}},{"type":"node","id":4329579069,"lat":-6.9197519,"lon":107.5944665,"tags":{"addr:city":"Bandung","addr:street":"Jl. Jendral Sudirman","air_conditioning":"yes","brand":"Circle K","brand:wikidata":"Q3268010","brand:wikipedia":"id:Circle K","currency:IDR":"yes","name":"Circle K","name:en":"Circle K","name:ja":"サークルK","opening_hours":"Mo-Fr 08:00-24:00; Sa-Su 08:00-02:00","owner":"PT. Circleka Indonesia Utama","payment:cash":"yes","payment:contactless":"no","payment:credit_cards":"yes","payment:debit_cards":"yes","payment:electronic_purses":"yes","shop":"convenience"}},{"type":"node","id":4329645119,"lat":-6.9067432,"lon":107.6045365,"tags":{"addr:city":"Bandung","addr:housenumber":"4","addr:street":"Jl. Cihampelas, Pasir Kaliki, Cicendo","name":"Kalibre Flagship Store Bandung","shop":"fashion"}},{"type":"node","id":4329674884,"lat":-6.918955,"lon":107.6121305,"tags":{"addr:city":"Bandung","addr:housenumber":"15","addr:street":"Jl. Tamblong","name":"Rasa Bakery & Cafe","shop":"bakery"}},{"type":"node","id":4338415394,"lat":-6.9044208,"lon":107.6690594,"tags":{"addr:housenumber":"68","addr:postcode":"40293","addr:street":"Jalan A.H Nasution","air_conditioning":"yes","brand":"Indomaret","brand:wikidata":"Q4262825","brand:wikipedia":"id:Indomaret","name":"Indomaret","name:en":"Indomaret","name:id":"Indomaret","name:ja":"インドマレット","opening_hours":"Mo-Su 07:00-22:00","operator":"PT. Indomarco Prismatama","payment:cash":"yes","payment:contactless":"yes","payment:credit_cards":"yes","payment:debit_cards":"yes","payment:electronic_purses":"no","shop":"convenience","toilets":"yes","toilets:access":"permissive","website":"https://www.klikindomaret.com"}},{"type":"node","id":4346763190,"lat":-6.9104891,"lon":107.6397943,"tags":{"shop":"mobile_phone"}},{"type":"node","id":4346881098,"lat":-6.9020599,"lon":107.6533314,"tags":{"addr:housenumber":"238","addr:postcode":"40125","addr:street":"Jalan PHH Mustopha","name":"N'Ji","opening_hours":"Mo-Su 09:00-20:00","shop":"hairdresser"}},{"type":"node","id":4348648589,"lat":-6.9021313,"lon":107.6531613,"tags":{"addr:street":"Jalan PHH Mustopha","name":"Marlina","shop":"hairdresser"}},{"type":"node","id":4364201406,"lat":-6.8891824,"lon":107.5969495,"tags":{"addr:city":"Bandung","addr:housenumber":"146","addr:postcode":"40162","addr:street":"Jl. Sukajadi, Cipedes","brand":"Indomaret","brand:wikidata":"Q4262825","brand:wikipedia":"id:Indomaret","name":"Indomaret Point","name:en":"Indomaret","opening_hours":"Mo-Su 07:00-22:00","payment:cash":"yes","payment:contactless":"yes","payment:credit_cards":"yes","payment:debit_cards":"yes","payment:electronic_purses":"no","shop":"convenience"}},{"type":"node","id":4365707543,"lat":-6.9175221,"lon":107.6049259,"tags":{"addr:city":"Bandung","addr:housenumber":"81-89","addr:postcode":"40111","addr:street":"Jalan Otto Iskandardinata","name":"Pasar Baru Square","shop":"mall"}},{"type":"node","id":4366130390,"lat":-6.934667,"lon":107.6245516,"tags":{"addr:city":"Bandung","addr:housenumber":"75","addr:postcode":"40262","addr:street":"Jalan KH. Ahmad Dahlan","name":"In Parfume","shop":"yes"}},{"type":"node","id":4366131827,"lat":-6.9027417,"lon":107.5958558,"tags":{"addr:city":"Bandung, Jawa Barat","addr:housenumber":"8","addr:postcode":"40218","addr:street":"Jalan Mahmud","name":"Toko Mahmud","shop":"yes"}},{"type":"node","id":4367093418,"lat":-6.9517036,"lon":107.5934602,"tags":{"addr:city":"Bandung","addr:housenumber":"60","addr:postcode":"40236","addr:street":"Jalan Raya Cibaduyut","name":"Grutty Shoes & Bags","shop":"yes"}},{"type":"node","id":4367384282,"lat":-6.8847762,"lon":107.5966542,"tags":{"addr:city":"Bandung","addr:housenumber":"182","addr:postcode":"40161","addr:street":"Sukajadi","name":"ZEN Family Spa & Reflexology","shop":"massage"}},{"type":"node","id":4367888901,"lat":-6.9061069,"lon":107.6158765,"tags":{"addr:city":"Bandung","addr:housenumber":"55","addr:postcode":"40115","addr:street":"Jalan R.E. Martadinata","name":"Bolu Susu Lembang","shop":"bakery"}},{"type":"node","id":4367919899,"lat":-6.9319771,"lon":107.6072773,"tags":{"addr:city":"Bandung","addr:postcode":"40252","addr:street":"Jalan Ibu Inggit Ganarsih","branch":"Ciateul","brand":"Yomart","brand:wikidata":"Q19745366","name":"Yomart","shop":"convenience"}},{"type":"node","id":4368774894,"lat":-6.8960075,"lon":107.6043169,"tags":{"name":"DE' ARUMMANIS","name:en":"De' Arummanis","shop":"yes"}},{"type":"node","id":4369948870,"lat":-6.885798,"lon":107.5789579,"tags":{"brand":"Alfamart","brand:wikidata":"Q23745600","brand:wikipedia":"id:Alfamart","name":"Alfamart","name:en":"Alfamart","opening_hours":"Mo-Su 07:00-22:00","operator":"PT Sumber Alfaria Trijaya,Tbk","shop":"convenience","toilets":"yes","toilets:access":"permissive","toilets:unisex":"yes","website":"https://alfamart.co.id"}},{"type":"node","id":4370090277,"lat":-6.9325439,"lon":107.576102,"tags":{"brand":"Griya","brand:wikidata":"Q124353081","name":"Griya","opening_hours":"Mo-Su 08:00-22:00","operator":"Yogya Group","payment:cash":"yes","payment:credit_cards":"yes","payment:debit_cards":"yes","shop":"supermarket"}},{"type":"node","id":4370994711,"lat":-6.9207683,"lon":107.6611034,"tags":{"addr:housenumber":"8","addr:postcode":"40291","addr:street":"Jalan Probolinggo","email":"stockpile.diecast@gmail.com","internet_access":"wlan","name":"Stockpile Diecast and Hobbies Store","opening_hours":"We-Su 09:00-22:00","phone":"+6285721776878","shop":"toys","website":"https://stockpilediecast.webs.com/"}},{"type":"node","id":4373098922,"lat":-6.939636,"lon":107.6257123,"tags":{"name":"Kartika Sari","opening_hours":"Mo-Su 09:00-21:00","shop":"pastry","wheelchair":"limited"}},{"type":"node","id":4373153918,"lat":-6.906118,"lon":107.6157817,"tags":{"addr:housenumber":"57","addr:street":"Jalan R.E. Martadinata","name":"Mandjha Ivan Gunawan","shop":"clothes"}},{"type":"node","id":4373163452,"lat":-6.9177012,"lon":107.6032498,"tags":{"name":"Pasar Baru Trade Center \"Antana\"","shop":"yes"}},{"type":"node","id":4373163702,"lat":-6.9181033,"lon":107.6039284,"tags":{"name":"Pasar Baru Trade Center \"Rahayu\"","shop":"yes"}},{"type":"node","id":4373170334,"lat":-6.917813,"lon":107.6042395,"tags":{"name":"Pintu Masuk Barat Pasar Baru","shop":"yes"}},{"type":"node","id":4373170347,"lat":-6.9180074,"lon":107.6036467,"tags":{"name":"Pintu Masuk Selatan Pasar Baru","shop":"yes"}},{"type":"node","id":4373171077,"lat":-6.9171128,"lon":107.6039525,"tags":{"name":"Pintu Masuk Utara Pasar Baru","shop":"yes"}},{"type":"node","id":4373199121,"lat":-6.9322836,"lon":107.622146,"tags":{"name":"Toko Buku Palasari","shop":"books"}},{"type":"node","id":4373247667,"lat":-6.933106,"lon":107.5962728,"tags":{"air_conditioning":"yes","brand":"Indomaret","brand:wikidata":"Q4262825","brand:wikipedia":"id:Indomaret","name":"Indomaret","name:en":"Indomaret","name:id":"Indomaret","name:ja":"インドマレット","opening_hours":"Mo-Su 07:00-22:00","operator":"PT. Indomarco Prismatama","payment:cash":"yes","payment:contactless":"yes","payment:credit_cards":"yes","payment:debit_cards":"yes","payment:electronic_purses":"no","shop":"convenience","toilets":"yes","toilets:access":"permissive","website":"https://www.klikindomaret.com"}},{"type":"node","id":4373534586,"lat":-6.9205666,"lon":107.6210502,"tags":{"name":"Toko Tiga Original Jeans Centre","shop":"yes"}},{"type":"node","id":4374197652,"lat":-6.8892523,"lon":107.5793066,"tags":{"addr:city":"Bandung","addr:postcode":"40164","addr:street":"Jalan Cibogo","name":"Micasa Mini Market","name:en":"Micasa","shop":"supermarket"}},{"type":"node","id":4375073435,"lat":-6.9136423,"lon":107.6024432,"tags":{"air_conditioning":"no","amenity":"fast_food","brand":"Roti'O","brand:wikidata":"Q124354233","diet:halal":"only","name":"Roti'O","shop":"bakery"}},{"type":"node","id":4375101167,"lat":-6.9169109,"lon":107.5981305,"tags":{"addr:city":"Bandung, Jawa Barat","addr:housenumber":"87","addr:postcode":"40181.","addr:street":"Jalan Gardujati","name":"Strawberry Salon","shop":"hairdresser"}},{"type":"node","id":4402320594,"lat":-6.9256775,"lon":107.6197784,"tags":{"name":"Tambal Ban","shop":"yes"}},{"type":"node","id":4402387711,"lat":-6.9187172,"lon":107.6097412,"tags":{"name":"Topic","shop":"yes"}},{"type":"node","id":4402434660,"lat":-6.918953,"lon":107.6061072,"tags":{"name":"LOG IN","shop":"yes"}},{"type":"node","id":4402445230,"lat":-6.9183592,"lon":107.6044334,"tags":{"name":"Toko Diva","shop":"yes"}},{"type":"node","id":4402461857,"lat":-6.918447,"lon":107.6049323,"tags":{"name":"Suara Kenari","shop":"yes"}},{"type":"node","id":4402472993,"lat":-6.9189452,"lon":107.6064409,"tags":{"name":"Toko Aneka Benang","shop":"yes"}},{"type":"node","id":4402473615,"lat":-6.9190703,"lon":107.6065562,"tags":{"name":"Bandung Baru","shop":"yes"}},{"type":"node","id":4404023863,"lat":-6.9208356,"lon":107.598316,"tags":{"name":"Alaska Sport Shoes","opening_hours":"Mo-Sa 08:00-18:00","shop":"yes"}},{"type":"node","id":4404027152,"lat":-6.921046,"lon":107.5984876,"tags":{"name":"Tiara Mini Market","name:en":"Tiara","opening_hours":"Mo-Sa 08:00-18:00","shop":"yes"}},{"type":"node","id":4404032012,"lat":-6.9213219,"lon":107.5985624,"tags":{"name":"Toko Dunia Plastik","opening_hours":"Mo-Sa 08:00-04:00","shop":"yes"}},{"type":"node","id":4404041502,"lat":-6.9223917,"lon":107.5984768,"tags":{"name":"Ciku Ciku Baby Kids Shop","shop":"yes"}},{"type":"node","id":4404047640,"lat":-6.9229455,"lon":107.5987047,"tags":{"name":"Anata Salon","name:en":"Anata","shop":"hairdresser"}},{"type":"node","id":4421640289,"lat":-6.9302856,"lon":107.6209798,"tags":{"name":"foto copy IDOLA","name:it":"Idola","shop":"copyshop"}},{"type":"node","id":4439616466,"lat":-6.9162691,"lon":107.6136219,"tags":{"branch":"Flagship Store","brand":"Eiger","brand:wikidata":"Q25471361","name":"Eiger","shop":"outdoor"}},{"type":"node","id":4447681394,"lat":-6.9764341,"lon":107.6329987,"tags":{"air_conditioning":"yes","brand":"Indomaret","brand:wikidata":"Q4262825","brand:wikipedia":"id:Indomaret","name":"Indomaret","name:en":"Indomaret","name:id":"Indomaret","name:ja":"インドマレット","operator":"PT. Indomarco Prismatama","shop":"convenience","toilets":"yes","toilets:access":"permissive","website":"https://www.klikindomaret.com"}},{"type":"node","id":4447753692,"lat":-6.9767563,"lon":107.6328509,"tags":{"brand":"Alfamart","brand:wikidata":"Q23745600","name":"Alfamart","operator":"PT Sumber Alfaria Trijaya,Tbk","shop":"convenience","toilets":"yes","toilets:access":"permissive","toilets:unisex":"yes","website":"https://alfamart.co.id"}},{"type":"node","id":4457293189,"lat":-6.9083053,"lon":107.6045861,"tags":{"brand":"Honda","brand:wikidata":"Q9584","name":"Honda Bandung Center","name:en":"Honda Bandung Center","name:it":"Honda","shop":"car"}},{"type":"node","id":4467987108,"lat":-6.9234371,"lon":107.6039748,"tags":{"addr:city":"Bandung","addr:housenumber":"255","addr:street":"Jl. Otto Iskandar Dinata","name":"Roti Sidodadi","name:en":"Sidodadi","opening_hours":"Mo-Su,PH 10:30-18:00+","shop":"bakery"}},{"type":"node","id":4523146096,"lat":-6.8885876,"lon":107.6194372,"tags":{"name":"Toko Bembi","shop":"convenience"}},{"type":"node","id":4537689390,"lat":-6.9148384,"lon":107.6106694,"tags":{"name":"katedral wine club","shop":"wine"}},{"type":"node","id":4550655406,"lat":-6.9155844,"lon":107.633892,"tags":{"addr:postcode":"40271","addr:street":"Jalan Jenderal Ahmad Yani","name":"Toys Kingdom","shop":"toys"}},{"type":"node","id":4554066239,"lat":-6.8935645,"lon":107.6055866,"tags":{"name":"Emina","shop":"beauty"}},{"type":"node","id":4554066299,"lat":-6.8728714,"lon":107.5945218,"tags":{"brand":"Holland Bakery","brand:wikidata":"Q19726345","name":"Holland Bakery","shop":"bakery"}},{"type":"node","id":4555085578,"lat":-6.8956287,"lon":107.5971557,"tags":{"shop":"mobile_phone"}},{"type":"node","id":4559361467,"lat":-6.9171472,"lon":107.6079281,"tags":{"addr:street":"Jalan Braga","name":"Mitra Sehat","opening_hours":"Mo-Fr 10:00-22:00; Sa, Su 09:00-22:00","shop":"massage"}},{"type":"node","id":4560221631,"lat":-6.9189372,"lon":107.5984118,"tags":{"brand":"Alfamart","brand:wikidata":"Q23745600","brand:wikipedia":"id:Alfamart","name":"Alfamart","name:en":"Alfamart","name:ja":"アルファマート","opening_hours":"Mo-Su 07:00-22:00","operator":"PT Sumber Alfaria Trijaya,Tbk","shop":"convenience","toilets":"yes","toilets:access":"permissive","toilets:unisex":"yes","website":"https://alfamart.co.id"}},{"type":"node","id":4561516500,"lat":-6.8778403,"lon":107.5906263,"tags":{"air_conditioning":"yes","brand":"Indomaret","brand:wikidata":"Q4262825","brand:wikipedia":"id:Indomaret","name":"Indomaret","name:en":"Indomaret","name:id":"Indomaret","name:ja":"インドマレット","opening_hours":"Mo-Su 07:00-22:00","operator":"PT. Indomarco Prismatama","payment:cash":"yes","payment:contactless":"yes","payment:credit_cards":"yes","payment:debit_cards":"yes","payment:electronic_purses":"no","shop":"convenience","toilets":"yes","toilets:access":"permissive","website":"https://www.klikindomaret.com"}},{"type":"node","id":4561518632,"lat":-6.8839607,"lon":107.595642,"tags":{"air_conditioning":"yes","brand":"Indomaret","brand:wikidata":"Q4262825","brand:wikipedia":"id:Indomaret","name":"Indomaret","name:en":"Indomaret","name:id":"Indomaret","name:ja":"インドマレット","opening_hours":"Mo-Su 07:00-22:00","operator":"PT. Indomarco Prismatama","payment:cash":"yes","payment:contactless":"yes","payment:credit_cards":"yes","payment:debit_cards":"yes","payment:electronic_purses":"no","shop":"convenience","toilets":"yes","toilets:access":"permissive","website":"https://www.klikindomaret.com"}},{"type":"node","id":4563265623,"lat":-6.8969698,"lon":107.592197,"tags":{"air_conditioning":"yes","brand":"Indomaret","brand:wikidata":"Q4262825","brand:wikipedia":"id:Indomaret","name":"Indomaret","name:en":"Indomaret","name:id":"Indomaret","name:ja":"インドマレット","opening_hours":"Mo-Su 07:00-22:00","operator":"PT. Indomarco Prismatama","payment:cash":"yes","payment:contactless":"yes","payment:credit_cards":"yes","payment:debit_cards":"yes","payment:electronic_purses":"no","shop":"convenience","toilets":"yes","toilets:access":"permissive","website":"https://www.klikindomaret.com"}},{"type":"node","id":4563282454,"lat":-6.8963183,"lon":107.5900493,"tags":{"air_conditioning":"yes","brand":"Indomaret","brand:wikidata":"Q4262825","brand:wikipedia":"id:Indomaret","name":"Indomaret","name:en":"Indomaret","name:id":"Indomaret","name:ja":"インドマレット","opening_hours":"Mo-Su 07:00-22:00","operator":"PT. Indomarco Prismatama","payment:cash":"yes","payment:contactless":"yes","payment:credit_cards":"yes","payment:debit_cards":"yes","payment:electronic_purses":"no","shop":"convenience","toilets":"yes","toilets:access":"permissive","website":"https://www.klikindomaret.com"}},{"type":"node","id":4646435190,"lat":-6.9632216,"lon":107.686689,"tags":{"addr:housenumber":"41","addr:street":"Jalan Gedebage","name":"TB Saluyu","opening_hours":"Mo-Su 07:00-17:00","shop":"hardware"}},{"type":"node","id":4788330421,"lat":-6.9307019,"lon":107.6218994,"tags":{"addr:housenumber":"65","addr:street":"Jalan Lodaya","name":"Dreadlock Studio","shop":"hairdresser"}},{"type":"node","id":4927994421,"lat":-6.963917,"lon":107.6875534,"tags":{"addr:housenumber":"7","addr:street":"Jalan Adi Flora Raya","email":"awey.tbb8669@gmail.com","name":"Specialist Laundry","opening_hours":"Mo-Su 08:00-20:00","operator":"Denny Awey","phone":"+62 897 2757 288","shop":"laundry"}},{"type":"node","id":4929614221,"lat":-6.8825057,"lon":107.5730726,"tags":{"addr:housenumber":"no 1","addr:postcode":"40151","addr:street":"Alfamart Terusan Sutami","shop":"laundry"}},{"type":"node","id":4976700229,"lat":-6.9003578,"lon":107.6150429,"tags":{"internet_access":"wlan","name":"Barber shop - great!","shop":"hairdresser"}},{"type":"node","id":4991472624,"lat":-6.8781277,"lon":107.5771736,"tags":{"addr:postcode":"40151","name":"F-Trans","shop":"travel_agency"}},{"type":"node","id":4991479925,"lat":-6.8774412,"lon":107.5764776,"tags":{"addr:street":"Jalan Sarimanah 2","name":"Karya Mekar","shop":"department_store"}},{"type":"node","id":4991479926,"lat":-6.8778299,"lon":107.5776855,"tags":{"air_conditioning":"yes","brand":"Indomaret","brand:wikidata":"Q4262825","brand:wikipedia":"id:Indomaret","name":"Indomaret","name:en":"Indomaret","name:id":"Indomaret","name:ja":"インドマレット","opening_hours":"Mo-Su 07:00-22:00","operator":"PT. Indomarco Prismatama","payment:cash":"yes","payment:contactless":"yes","payment:credit_cards":"yes","payment:debit_cards":"yes","payment:electronic_purses":"no","shop":"convenience","toilets":"yes","toilets:access":"permissive","website":"https://www.klikindomaret.com"}},{"type":"node","id":4991479927,"lat":-6.8794629,"lon":107.5767625,"tags":{"name":"Yomart","shop":"convenience"}},{"type":"node","id":4991484723,"lat":-6.8785205,"lon":107.5764579,"tags":{"name":"Warteng (Warung Tengah)","shop":"variety_store"}},{"type":"node","id":4991484724,"lat":-6.8782122,"lon":107.5763265,"tags":{"name":"Ate Starsucks","shop":"variety_store"}},{"type":"node","id":5002396723,"lat":-6.8824559,"lon":107.6011498,"tags":{"name":"Setyabudi","shop":"bakery"}},{"type":"node","id":5018139434,"lat":-6.9102986,"lon":107.6084619,"tags":{"air_conditioning":"yes","brand":"Circle K","brand:wikidata":"Q3268010","brand:wikipedia":"id:Circle K","currency:IDR":"yes","name":"Circle K","name:en":"Circle K","name:ja":"サークルK","opening_hours":"Mo-Fr 08:00-24:00; Sa-Su 08:00-02:00","owner":"PT. Circleka Indonesia Utama","payment:cash":"yes","shop":"convenience"}},{"type":"node","id":5018139435,"lat":-6.9102732,"lon":107.6086475,"tags":{"air_conditioning":"yes","brand":"Circle K","brand:wikidata":"Q3268010","brand:wikipedia":"id:Circle K","currency:IDR":"yes","name":"Circle K","name:en":"Circle K","name:ja":"サークルK","opening_hours":"Mo-Fr 08:00-24:00; Sa-Su 08:00-02:00","owner":"PT. Circleka Indonesia Utama","payment:cash":"yes","shop":"convenience"}},{"type":"node","id":5018139436,"lat":-6.9101451,"lon":107.6086326,"tags":{"air_conditioning":"yes","brand":"Circle K","brand:wikidata":"Q3268010","brand:wikipedia":"id:Circle K","currency:IDR":"yes","name":"Circle K","name:en":"Circle K","name:ja":"サークルK","opening_hours":"Mo-Fr 08:00-24:00; Sa-Su 08:00-02:00","owner":"PT. Circleka Indonesia Utama","payment:cash":"yes","shop":"convenience"}},{"type":"node","id":5018139437,"lat":-6.9101677,"lon":107.6084441,"tags":{"air_conditioning":"yes","brand":"Circle K","brand:wikidata":"Q3268010","brand:wikipedia":"id:Circle K","currency:IDR":"yes","name":"Circle K","name:en":"Circle K","name:ja":"サークルK","opening_hours":"Mo-Fr 08:00-24:00; Sa-Su 08:00-02:00","owner":"PT. Circleka Indonesia Utama","payment:cash":"yes","shop":"convenience"}},{"type":"node","id":5019537427,"lat":-6.9418742,"lon":107.6673838,"tags":{"addr:housenumber":"31 B","addr:street":"Venus Raya","name":"A. Kasoem Optical","opening_hours":"Mo-Su 09:00-21:00","shop":"optician"}},{"type":"node","id":5036983767,"lat":-6.8924077,"lon":107.6102557,"tags":{"addr:street":"Jalan Ganesha","name":"Penerbit ITB Bookstore","operator":"Penerbit ITB","shop":"books"}},{"type":"node","id":5061207427,"lat":-6.8934066,"lon":107.6038538,"tags":{"name":"Ahass Rejeki Motor Honda","shop":"motorcycle"}},{"type":"node","id":5066608523,"lat":-6.8891749,"lon":107.6077102,"tags":{"name":"Bandung Zoo","shop":"florist"}},{"type":"node","id":5080868607,"lat":-6.896551,"lon":107.6309086,"tags":{"addr:city":"Bandung","addr:housenumber":"34","addr:postcode":"40123","addr:street":"Jalan Jalaprang","air_conditioning":"yes","brand":"Indomaret","brand:wikidata":"Q4262825","brand:wikipedia":"id:Indomaret","name":"Indomaret","name:en":"Indomaret","name:id":"Indomaret","name:ja":"インドマレット","opening_hours":"Mo-Su 07:00-22:00","operator":"PT. Indomarco Prismatama","payment:cash":"yes","payment:contactless":"yes","payment:credit_cards":"yes","payment:debit_cards":"yes","payment:electronic_purses":"no","shop":"convenience","toilets":"yes","toilets:access":"permissive","website":"https://www.klikindomaret.com"}},{"type":"node","id":5080871148,"lat":-6.8968026,"lon":107.6310226,"tags":{"addr:city":"Bandung","addr:housenumber":"20","addr:postcode":"40123","addr:street":"Jalan Jalaprang","brand":"Alfamart","brand:wikidata":"Q23745600","brand:wikipedia":"id:Alfamart","name":"Alfamart","name:en":"Alfamart","opening_hours":"Mo-Su 07:00-22:00","operator":"PT Sumber Alfaria Trijaya,Tbk","shop":"convenience","toilets":"yes","toilets:access":"permissive","toilets:unisex":"yes","website":"https://alfamart.co.id"}},{"type":"node","id":5116916623,"lat":-6.8992041,"lon":107.6338676,"tags":{"addr:housenumber":"19","addr:street":"Jl. Pahlawan","name":"Inra Cell","phone":"+62 896 5842 9446","shop":"mobile_phone"}},{"type":"node","id":5117200921,"lat":-6.9040682,"lon":107.6676082,"tags":{"addr:housenumber":"33","addr:postcode":"40293","addr:street":"Jalan A.H Nasution","name":"FB","name:it":"FB","opening_hours":"Mo-Su 08:00-19:00","phone":"+62 896-5535-3950","shop":"hairdresser"}},{"type":"node","id":5119336930,"lat":-6.888637,"lon":107.5957501,"tags":{"name":"Condotti","shop":"gift"}},{"type":"node","id":5119336932,"lat":-6.8886444,"lon":107.5955893,"tags":{"name":"Nona Rara","shop":"gift"}},{"type":"node","id":5119336934,"lat":-6.8883318,"lon":107.5959162,"tags":{"name":"Kipling","shop":"gift"}},{"type":"node","id":5119339539,"lat":-6.8980489,"lon":107.635122,"tags":{"addr:housenumber":"26","addr:street":"Jalan Penghulu Haji Hasan Mustopa","name":"Rindu","opening_hours":"Mo-Su 08:00-21:00","shop":"copyshop"}},{"type":"node","id":5119339729,"lat":-6.8981125,"lon":107.63546,"tags":{"addr:housenumber":"36","name":"Dodi Copy Center","name:it":"Dodi","shop":"copyshop"}},{"type":"node","id":5119339739,"lat":-6.8885726,"lon":107.5959214,"tags":{"name":"Salt n Pepper","shop":"clothes"}},{"type":"node","id":5119340025,"lat":-6.8886693,"lon":107.5959239,"tags":{"name":"M dreams","shop":"shoes"}},{"type":"node","id":5119340028,"lat":-6.8885618,"lon":107.5957464,"tags":{"name":"Paris Hilton","shop":"gift"}},{"type":"node","id":5119341924,"lat":-6.8884912,"lon":107.5957448,"tags":{"name":"Sephora","shop":"cosmetics"}},{"type":"node","id":5119341925,"lat":-6.8884095,"lon":107.5959163,"tags":{"brand":"Lacoste","brand:wikidata":"Q309031","brand:wikipedia":"en:Lacoste","name":"Lacoste","name:en":"Lacoste","shop":"clothes"}},{"type":"node","id":5119341926,"lat":-6.8882303,"lon":107.5959119,"tags":{"brand":"Stradivarius","brand:wikidata":"Q3322945","brand:wikipedia":"en:Stradivarius (clothing brand)","name":"Stradivarius","name:en":"Stradivarius","shop":"clothes"}},{"type":"node","id":5119357422,"lat":-6.8885612,"lon":107.5956622,"tags":{"name":"Day's & Smoothie","shop":"gift"}},{"type":"node","id":5119357523,"lat":-6.8884889,"lon":107.5959189,"tags":{"name":"Braun Buffel","shop":"gift"}},{"type":"node","id":5119361621,"lat":-6.8886402,"lon":107.5956647,"tags":{"name":"Teddy House","shop":"gift"}},{"type":"node","id":5119361622,"lat":-6.8886478,"lon":107.5955096,"tags":{"name":"Sweet Factory","shop":"gift"}},{"type":"node","id":5119708122,"lat":-6.8891487,"lon":107.5956846,"tags":{"shop":"gift"}},{"type":"node","id":5119708123,"lat":-6.8892254,"lon":107.5956872,"tags":{"brand":"Guess","brand:wikidata":"Q2470307","brand:wikipedia":"en:Guess (clothing)","name":"Guess","name:en":"Guess","shop":"clothes"}},{"type":"node","id":5119708124,"lat":-6.8898562,"lon":107.5956914,"tags":{"name":"Fossil","shop":"gift"}},{"type":"node","id":5119722921,"lat":-6.8887158,"lon":107.5957521,"tags":{"name":"Clarks","shop":"shoes"}},{"type":"node","id":5119722922,"lat":-6.8887289,"lon":107.5956637,"tags":{"name":"Donini","shop":"gift"}},{"type":"node","id":5119722924,"lat":-6.8889122,"lon":107.5956681,"tags":{"brand":"Dorothy Perkins","brand:wikidata":"Q5298588","brand:wikipedia":"en:Dorothy Perkins","name":"Dorothy Perkins","name:en":"Dorothy Perkins","shop":"clothes"}},{"type":"node","id":5119722925,"lat":-6.8890709,"lon":107.5956785,"tags":{"name":"Charles & Keith","shop":"gift"}},{"type":"node","id":5119722926,"lat":-6.8893656,"lon":107.5956327,"tags":{"name":"Yves Rocher","shop":"cosmetics"}},{"type":"node","id":5119722927,"lat":-6.8895294,"lon":107.5956829,"tags":{"name":"Batik Keris","shop":"clothes"}},{"type":"node","id":5119722928,"lat":-6.8896193,"lon":107.5956837,"tags":{"name":"eStore","shop":"electronics"}},{"type":"node","id":5119722929,"lat":-6.8897052,"lon":107.5956877,"tags":{"brand":"Victoria's Secret","brand:wikidata":"Q332477","brand:wikipedia":"en:Victoria's Secret","clothes":"underwear;women","name":"Victoria's Secret","name:en":"Victoria's Secret","shop":"clothes"}},{"type":"node","id":5119722930,"lat":-6.8896081,"lon":107.5958072,"tags":{"name":"Mezzo","shop":"clothes"}},{"type":"node","id":5119722931,"lat":-6.8898582,"lon":107.5958235,"tags":{"name":"Innisfree","shop":"cosmetics"}},{"type":"node","id":5119722932,"lat":-6.8901235,"lon":107.5958585,"tags":{"name":"Shu Uemura","shop":"cosmetics"}},{"type":"node","id":5119722935,"lat":-6.8900386,"lon":107.5954101,"tags":{"name":"The Face Shop","shop":"cosmetics"}},{"type":"node","id":5119722936,"lat":-6.8895711,"lon":107.5955437,"tags":{"name":"Recipe","shop":"cosmetics"}},{"type":"node","id":5119722937,"lat":-6.8894576,"lon":107.5955461,"tags":{"name":"Trixie","shop":"cosmetics"}},{"type":"node","id":5119723521,"lat":-6.8888097,"lon":107.5956676,"tags":{"name":"Rotelli","shop":"shoes"}},{"type":"node","id":5119723522,"lat":-6.8887789,"lon":107.5957562,"tags":{"brand":"Kiehl's","brand:wikidata":"Q3196447","brand:wikipedia":"en:Kiehl's","name":"Kiehl's","name:en":"Kiehl's","shop":"cosmetics"}},{"type":"node","id":5119723523,"lat":-6.8889561,"lon":107.595766,"tags":{"brand":"L'Occitane","brand:wikidata":"Q1880676","brand:wikipedia":"en:L'Occitane en Provence","name":"L'Occitane","name:en":"L'occitane","shop":"cosmetics"}},{"type":"node","id":5119723524,"lat":-6.8892736,"lon":107.5956251,"tags":{"name":"En's Collections","shop":"jewelry"}},{"type":"node","id":5119723526,"lat":-6.8899369,"lon":107.5956942,"tags":{"name":"Liebeskind","shop":"gift"}},{"type":"node","id":5119723527,"lat":-6.8899604,"lon":107.5958276,"tags":{"name":"The Body Shop","shop":"cosmetics"}},{"type":"node","id":5119723528,"lat":-6.8901204,"lon":107.5959573,"tags":{"name":"B & L","shop":"gift"}},{"type":"node","id":5119723529,"lat":-6.8898086,"lon":107.5955546,"tags":{"name":"Niks","shop":"clothes"}},{"type":"node","id":5119723531,"lat":-6.8896799,"lon":107.5954047,"tags":{"name":"Marks & Spencer Food","shop":"convenience"}},{"type":"node","id":5119723532,"lat":-6.8893532,"lon":107.5954546,"tags":{"name":"Sierra","shop":"gift"}},{"type":"node","id":5119723533,"lat":-6.8891544,"lon":107.5954591,"tags":{"name":"Crack Berry","shop":"mobile_phone"}},{"type":"node","id":5119723534,"lat":-6.8890691,"lon":107.5954551,"tags":{"shop":"gift"}},{"type":"node","id":5119723535,"lat":-6.8887685,"lon":107.5955251,"tags":{"name":"Tik Tok","shop":"variety_store"}},{"type":"node","id":5119724021,"lat":-6.8890252,"lon":107.595769,"tags":{"brand":"Aldo","brand:wikidata":"Q2832297","brand:wikipedia":"en:Aldo Group","name":"Aldo","name:en":"Aldo","shop":"shoes"}},{"type":"node","id":5119724022,"lat":-6.8897864,"lon":107.5956915,"tags":{"brand":"Timberland","brand:wikidata":"Q1539185","brand:wikipedia":"en:The Timberland Company","name":"Timberland","name:en":"Timberland","shop":"clothes"}},{"type":"node","id":5119724023,"lat":-6.8899506,"lon":107.5955556,"tags":{"name":"Lumiere","shop":"jewelry"}},{"type":"node","id":5119724024,"lat":-6.8891601,"lon":107.5955422,"tags":{"name":"Heerens","shop":"clothes"}},{"type":"node","id":5119724025,"lat":-6.8890726,"lon":107.5955392,"tags":{"name":"First Love","shop":"confectionery"}},{"type":"node","id":5119724026,"lat":-6.8888504,"lon":107.5954177,"tags":{"name":"Garage","shop":"shoes"}},{"type":"node","id":5119724821,"lat":-6.8889911,"lon":107.5956727,"tags":{"name":"Rip Curl","shop":"sports"}},{"type":"node","id":5119724822,"lat":-6.8894219,"lon":107.5958284,"tags":{"name":"InTime","shop":"jewelry"}},{"type":"node","id":5119724823,"lat":-6.8894327,"lon":107.5956773,"tags":{"name":"Bath & Body Works","shop":"cosmetics"}},{"type":"node","id":5119724824,"lat":-6.8893837,"lon":107.5959016,"tags":{"name":"Everbest","shop":"shoes"}},{"type":"node","id":5119724825,"lat":-6.890274,"lon":107.5959631,"tags":{"name":"Bershka","shop":"clothes"}},{"type":"node","id":5119724829,"lat":-6.8897658,"lon":107.5954041,"tags":{"name":"Daily Fresh","shop":"convenience"}},{"type":"node","id":5119724830,"lat":-6.8897273,"lon":107.5955572,"tags":{"name":"Heatwave","shop":"shoes"}},{"type":"node","id":5119724831,"lat":-6.8896041,"lon":107.5954038,"tags":{"name":"Birds & Bees","shop":"clothes"}},{"type":"node","id":5119724832,"lat":-6.8896431,"lon":107.59555,"tags":{"name":"Swatch","shop":"gift"}},{"type":"node","id":5119724833,"lat":-6.8892625,"lon":107.5954605,"tags":{"name":"Craftholic","shop":"gift"}},{"type":"node","id":5119724834,"lat":-6.8892393,"lon":107.5955461,"tags":{"name":"Pretty Pastels","shop":"clothes"}},{"type":"node","id":5119724835,"lat":-6.8889902,"lon":107.5954456,"tags":{"shop":"gift"}},{"type":"node","id":5119724836,"lat":-6.8889919,"lon":107.5955404,"tags":{"shop":"gift"}},{"type":"node","id":5119724837,"lat":-6.8889197,"lon":107.5954292,"tags":{"name":"eStore","shop":"electronics"}},{"type":"node","id":5119724838,"lat":-6.8888384,"lon":107.595529,"tags":{"name":"Make Over","shop":"cosmetics"}},{"type":"node","id":5119724839,"lat":-6.8887807,"lon":107.5954192,"tags":{"name":"Tapak","shop":"gift"}},{"type":"node","id":5119724840,"lat":-6.8887073,"lon":107.5954184,"tags":{"shop":"gift"}},{"type":"node","id":5119724841,"lat":-6.8886341,"lon":107.5954189,"tags":{"name":"Sweet Factory","shop":"convenience"}},{"type":"node","id":5119724842,"lat":-6.8885675,"lon":107.5954169,"tags":{"shop":"gift"}},{"type":"node","id":5119726021,"lat":-6.8902938,"lon":107.5956021,"tags":{"brand":"Converse","brand:wikidata":"Q319515","brand:wikipedia":"en:Converse (shoe company)","name":"Converse","name:en":"Converse","shop":"shoes"}},{"type":"node","id":5119726022,"lat":-6.8889122,"lon":107.5955384,"tags":{"name":"Kembang Gula","shop":"gift"}},{"type":"node","id":5119727421,"lat":-6.8895253,"lon":107.5954175,"tags":{"name":"Samsonite","shop":"gift"}},{"type":"node","id":5119852122,"lat":-6.8894445,"lon":107.5954434,"tags":{"name":"Pesona","shop":"jewelry"}},{"type":"node","id":5121620622,"lat":-6.9202228,"lon":107.6213234,"tags":{"addr:housenumber":"115","shop":"toys"}},{"type":"node","id":5121620623,"lat":-6.9194309,"lon":107.6226723,"tags":{"name":"Kencana","shop":"jewelry"}},{"type":"node","id":5121620624,"lat":-6.919369,"lon":107.6227849,"tags":{"name":"Cari Rasa","shop":"bakery"}},{"type":"node","id":5121662723,"lat":-6.9195341,"lon":107.6224864,"tags":{"name":"Jaga","shop":"jewelry"}},{"type":"node","id":5121662724,"lat":-6.919499,"lon":107.6225456,"tags":{"name":"Rasa Milo","shop":"convenience"}},{"type":"node","id":5121677822,"lat":-6.919399,"lon":107.6227306,"tags":{"addr:housenumber":"147","name":"Mawar","shop":"gift"}},{"type":"node","id":5121696122,"lat":-6.9194645,"lon":107.6226091,"tags":{"name":"Megaria 143","shop":"gift"}},{"type":"node","id":5123512122,"lat":-6.9615132,"lon":107.6246842,"tags":{"name":"Khasna","shop":"convenience"}},{"type":"node","id":5141323924,"lat":-6.8902201,"lon":107.5966502,"tags":{"name":"twighouse","shop":"clothes"}},{"type":"node","id":5170435581,"lat":-6.8932327,"lon":107.6056973,"tags":{"cuisine":"indonesian","internet_access":"wlan","name":"Pet Kingdom","shop":"pet"}},{"type":"node","id":5172651268,"lat":-6.9093412,"lon":107.6201459,"tags":{"name":"Every day Spa","shop":"massage"}},{"type":"node","id":5181118059,"lat":-6.8994524,"lon":107.5968444,"tags":{"addr:housenumber":"10","addr:street":"Jalan Sukamukti","name":"Saya Suka, Oleh-oleh Bandung","opening_hours":"Mo-Su 06:00-21:00","shop":"pastry"}},{"type":"node","id":5181205852,"lat":-6.8942169,"lon":107.6041816,"tags":{"name":"Jokowow","shop":"clothes"}},{"type":"node","id":5181205939,"lat":-6.8938834,"lon":107.6042265,"tags":{"name":"Hypestore","shop":"clothes"}},{"type":"node","id":5182884494,"lat":-6.895036,"lon":107.5968093,"tags":{"name":"Nayla","shop":"clothes"}},{"type":"node","id":5182885390,"lat":-6.8946148,"lon":107.5972964,"tags":{"brand":"Alfamart","brand:wikidata":"Q23745600","brand:wikipedia":"id:Alfamart","name":"Alfamart","name:en":"Alfamart","opening_hours":"Mo-Su 07:00-22:00","operator":"PT Sumber Alfaria Trijaya,Tbk","shop":"convenience","toilets":"yes","toilets:access":"permissive","toilets:unisex":"yes","website":"https://alfamart.co.id"}},{"type":"node","id":5182885526,"lat":-6.8868956,"lon":107.5967543,"tags":{"name":"Toean Njonja","shop":"clothes"}},{"type":"node","id":5182894406,"lat":-6.8592628,"lon":107.5947389,"tags":{"air_conditioning":"yes","brand":"Indomaret","brand:wikidata":"Q4262825","brand:wikipedia":"id:Indomaret","name":"Indomaret","name:en":"Indomaret","name:id":"Indomaret","name:ja":"インドマレット","opening_hours":"Mo-Su 07:00-22:00","operator":"PT. Indomarco Prismatama","payment:cash":"yes","payment:contactless":"yes","payment:credit_cards":"yes","payment:debit_cards":"yes","payment:electronic_purses":"no","shop":"convenience","toilets":"yes","toilets:access":"permissive","website":"https://www.klikindomaret.com"}},{"type":"node","id":5183387166,"lat":-6.8698221,"lon":107.5908012,"tags":{"air_conditioning":"yes","brand":"Indomaret","brand:wikidata":"Q4262825","brand:wikipedia":"id:Indomaret","name":"Indomaret","name:en":"Indomaret","name:id":"Indomaret","name:ja":"インドマレット","opening_hours":"Mo-Su 07:00-22:00","operator":"PT. Indomarco Prismatama","payment:cash":"yes","payment:contactless":"yes","payment:credit_cards":"yes","payment:debit_cards":"yes","payment:electronic_purses":"no","shop":"convenience","toilets":"yes","toilets:access":"permissive","website":"https://www.klikindomaret.com"}},{"type":"node","id":5183387272,"lat":-6.8699917,"lon":107.5907259,"tags":{"brand":"Alfamart","brand:wikidata":"Q23745600","brand:wikipedia":"id:Alfamart","name":"Alfamart","name:en":"Alfamart","opening_hours":"Mo-Su 07:00-22:00","operator":"PT Sumber Alfaria Trijaya,Tbk","shop":"convenience","toilets":"yes","toilets:access":"permissive","toilets:unisex":"yes","website":"https://alfamart.co.id"}},{"type":"node","id":5184970989,"lat":-6.9136508,"lon":107.6026476,"tags":{"brand":"Alfa Express","brand:wikidata":"Q12471463","name":"Alfa Express","opening_hours":"Mo-Su 07:00-22:00","shop":"convenience"}},{"type":"node","id":5188542844,"lat":-6.9172489,"lon":107.5931239,"tags":{"name":"Tickets Chinatown Bandung","name:en":"Tickets Chinatown","shop":"ticket"}},{"type":"node","id":5188560699,"lat":-6.9175134,"lon":107.5930928,"tags":{"air_conditioning":"yes","brand":"Indomaret","brand:wikidata":"Q4262825","brand:wikipedia":"id:Indomaret","name":"Indomaret","name:en":"Indomaret","name:id":"Indomaret","name:ja":"インドマレット","opening_hours":"Mo-Su 07:00-22:00","operator":"PT. Indomarco Prismatama","payment:cash":"yes","payment:contactless":"yes","payment:credit_cards":"yes","payment:debit_cards":"yes","payment:electronic_purses":"no","shop":"convenience","toilets":"yes","toilets:access":"permissive","website":"https://www.klikindomaret.com"}},{"type":"node","id":5188560701,"lat":-6.9174309,"lon":107.5931115,"tags":{"brand":"Alfamart","brand:wikidata":"Q23745600","brand:wikipedia":"id:Alfamart","name":"Alfamart","name:en":"Alfamart","opening_hours":"Mo-Su 07:00-22:00","operator":"PT Sumber Alfaria Trijaya,Tbk","shop":"convenience","toilets":"yes","toilets:access":"permissive","toilets:unisex":"yes","website":"https://alfamart.co.id"}},{"type":"node","id":5188816074,"lat":-6.8973456,"lon":107.5926019,"tags":{"brand":"Alfamart","brand:wikidata":"Q23745600","brand:wikipedia":"id:Alfamart","name":"Alfamart","name:en":"Alfamart","opening_hours":"Mo-Su 07:00-22:00","operator":"PT Sumber Alfaria Trijaya,Tbk","shop":"convenience","toilets":"yes","toilets:access":"permissive","toilets:unisex":"yes","website":"https://alfamart.co.id"}},{"type":"node","id":5190287370,"lat":-6.9072221,"lon":107.6233401,"tags":{"name":"J&C Cookies","shop":"pastry"}},{"type":"node","id":5190290979,"lat":-6.9062849,"lon":107.6224733,"tags":{"name":"elzatta","shop":"clothes"}},{"type":"node","id":5190292851,"lat":-6.9060692,"lon":107.6203062,"tags":{"brand":"Indomaret","brand:wikidata":"Q4262825","name":"Indomaret","shop":"convenience"}},{"type":"node","id":5209817521,"lat":-6.9175795,"lon":107.6033812,"tags":{"addr:street":"Jalan Otto Iskandardinata","name":"PD.WANS","opening_hours":"Mo-Su 09:00-16:00","shop":"clothes"}},{"type":"node","id":5219299223,"lat":-6.9083788,"lon":107.5786883,"tags":{"branch":"Garuda","brand":"Yomart","brand:wikidata":"Q19745366","name":"Yomart","shop":"convenience"}},