{"version":0.6,"generator":"Overpass API 0.7.62.11 87bfad18","osm3s":{"timestamp_osm_base":"2026-06-16T10:46:30Z","copyright":"The data included in this document is from www.openstreetmap.org. The data is made available under ODbL."},"elements":[{"type":"node","id":32529134,"lat":-6.9209101,"lon":107.5966131,"tags":{"name":"Balai Besar Kesehatan Paru Masyarakat Bandung","office":"government"}},{"type":"node","id":1107488995,"lat":-6.9061122,"lon":107.6299284,"tags":{"name":"Plasa Telkom","office":"telecommunication"}},{"type":"node","id":1107489008,"lat":-6.9054138,"lon":107.6294968,"tags":{"name":"Kantor Telkom Unit Consumer Service Regional III Jawa Barat","office":"telecommunication"}},{"type":"node","id":2497173726,"lat":-6.9064034,"lon":107.6172209,"tags":{"check_date":"2026-05-04","name":"Pos Indonesia","office":"company"}},{"type":"node","id":2500443116,"lat":-6.9503473,"lon":107.6276493,"tags":{"name":"BPMPD","office":"government"}},{"type":"node","id":2887123567,"lat":-6.9434595,"lon":107.6596189,"tags":{"addr:city":"Bandung","addr:housenumber":"H29","addr:street":"Soekarno Hatta","name":"PT. Daya Amani Solusimatika","office":"it"}},{"type":"node","id":3066088079,"lat":-6.8947839,"lon":107.586595,"tags":{"name":"PSTA LAPAN","office":"government"}},{"type":"node","id":3096759043,"lat":-6.891432,"lon":107.6014084,"tags":{"addr:city":"Bandung","addr:street":"Sampurna","name":"PT Sangkuriang Internasional","office":"company"}},{"type":"node","id":3096805945,"lat":-6.917526,"lon":107.6108082,"tags":{"name":"Telkom","office":"telecommunication"}},{"type":"node","id":4143005593,"lat":-6.9414907,"lon":107.6535143,"tags":{"addr:street":"Jalan Soekarno-Hatta","name":"PAKET INTERNET STORE","office":"telecommunication"}},{"type":"node","id":4143033597,"lat":-6.9407207,"lon":107.6573086,"tags":{"addr:street":"Jalan Soekarno-Hatta","name":"DINAS PERTANAHAN KOTA BANDUNG","office":"government"}},{"type":"node","id":4143035291,"lat":-6.9434787,"lon":107.6471754,"tags":{"name":"KNPI JABAR","office":"government"}},{"type":"node","id":4143036292,"lat":-6.9384751,"lon":107.6427116,"tags":{"addr:street":"Jalan Ibrahim Adji","name":"DEN JASA ANG","office":"government"}},{"type":"node","id":4143046789,"lat":-6.9389011,"lon":107.662311,"tags":{"addr:street":"Jalan Soekarno-Hatta","name":"PERUM BULOG","name:en":"Perum Bulog","office":"government"}},{"type":"node","id":4143048391,"lat":-6.9092174,"lon":107.6290918,"tags":{"addr:street":"Jalan Salam","name":"Surjadi Jasin SH","office":"notary"}},{"type":"node","id":4150802650,"lat":-6.8828316,"lon":107.5967132,"tags":{"name":"Ray White Sukajadi","office":"estate_agent"}},{"type":"node","id":4169086712,"lat":-6.8973057,"lon":107.6206043,"tags":{"addr:city":"Coblong","addr:housenumber":"6","addr:street":"Jalan Tikukur","name":"Greeneration Foundation","office":"ngo","website":"https://www.greeneration.org/"}},{"type":"node","id":4214720229,"lat":-6.9492375,"lon":107.5915719,"tags":{"name":"KUA Bojong Loa Kidul","office":"government"}},{"type":"node","id":4275268162,"lat":-6.8990863,"lon":107.6315212,"tags":{"addr:housenumber":"82","addr:street":"Jalan Surapati","government":"migration","name":"Kantor Imigrasi Kelas 1 Bandung","office":"government","opening_hours":"Mo-Th 07:30-12:00, 13:00-16:00; Fr 07:30-11:30, 13:00-16:30","website":"http://bandung.imigrasi.go.id/"}},{"type":"node","id":4327207808,"lat":-6.8740023,"lon":107.6045778,"tags":{"addr:street":"Jl. Ciumbuleuit, Ciumbuleuit, Cidadap","name":"Binus Center Bandung","office":"educational_institution"}},{"type":"node","id":4329531487,"lat":-6.893717,"lon":107.635371,"tags":{"addr:city":"Bandung","addr:housenumber":"78","addr:street":"Jl. Pahlawan , Neglasari, Cibeunying Kaler","name":"Bandung Education Center","office":"educational_institution"}},{"type":"node","id":4338426691,"lat":-6.9040381,"lon":107.6695841,"tags":{"addr:city":"Bandung","addr:housenumber":"127","addr:postcode":"40194","addr:street":"Jalan A.H Nasution","email":"andreas.wiyanto@grandtex.co.id","name":"PT Grand Textile","office":"company","opening_hours":"Mo-Fr 08:00-16:00; Sa 08:00-14:00","phone":"+62 22 720 6565","website":"http://www.grandtex.co.id"}},{"type":"node","id":4706174302,"lat":-6.8826754,"lon":107.6100894,"tags":{"name":"B4T","office":"government"}},{"type":"node","id":4842823255,"lat":-6.8913486,"lon":107.6040742,"tags":{"addr:city":"Bandung","addr:housenumber":"165","addr:postcode":"40131","addr:street":"Jalan Cihampelas","name":"SKALA architecture+interior works","office":"company","opening_hours":"08:00-16:00","smoking":"no"}},{"type":"node","id":4863109252,"lat":-6.8980352,"lon":107.6458555,"tags":{"description":"Senat Mahasiswa Fak. DKV","name":"F 206","office":"company"}},{"type":"node","id":4863109253,"lat":-6.8980803,"lon":107.6458487,"tags":{"description":"Senat Mahasiswa Fak. Bisnis & Manajemen","name":"F 205","office":"company"}},{"type":"node","id":4863109254,"lat":-6.8982026,"lon":107.6459077,"tags":{"description":"Senat Mahasiswa Fak. Ekonomi","name":"F 204","office":"company"}},{"type":"node","id":4863109255,"lat":-6.8981866,"lon":107.6458487,"tags":{"description":"Senat Mahasiswa Fak. Bahasa","name":"F 203","office":"company"}},{"type":"node","id":4863109256,"lat":-6.8981691,"lon":107.6457844,"tags":{"description":"Senat Mahasiswa Fak. Teknik","name":"F 202","office":"company"}},{"type":"node","id":4863109257,"lat":-6.8981523,"lon":107.6457126,"tags":{"description":"Pemerintahan Mahasiswa","name":"F 201","office":"company"}},{"type":"node","id":4863109261,"lat":-6.897947,"lon":107.6459197,"tags":{"description":"UKM Hikmatul Iman","name":"F 115","office":"company"}},{"type":"node","id":4863109262,"lat":-6.8979781,"lon":107.6459107,"tags":{"amenity":"community_centre","description":"MAPALA","name":"F 114","office":"company"}},{"type":"node","id":4863109263,"lat":-6.8980474,"lon":107.6459068,"tags":{"description":"UKM English Club","name":"F 113","office":"company"}},{"type":"node","id":4863109264,"lat":-6.8979355,"lon":107.645866,"tags":{"description":"UKM Kelompok Seni Mahasiswa","name":"F 116","office":"company"}},{"type":"node","id":4863109265,"lat":-6.8981357,"lon":107.6456572,"tags":{"description":"UKM Bulu Tangkis","name":"F 117","office":"company"}},{"type":"node","id":4863109266,"lat":-6.8980769,"lon":107.6456764,"tags":{"description":"UKM Bandung Santo Club","name":"F 118","office":"company"}},{"type":"node","id":4863109267,"lat":-6.8980884,"lon":107.6457259,"tags":{"description":"UKM Taekwondo","name":"F 119","office":"company"}},{"type":"node","id":4863109268,"lat":-6.8979449,"lon":107.6457989,"tags":{"description":"Bramatala","name":"F 122","office":"company"}},{"type":"node","id":4863109269,"lat":-6.8981142,"lon":107.6458926,"tags":{"description":"sEntra Keluarga","name":"F 112","office":"company"}},{"type":"node","id":4863109270,"lat":-6.8981499,"lon":107.6459475,"tags":{"description":"UKM Kewirausahaan","name":"F 111","office":"company"}},{"type":"node","id":4863109271,"lat":-6.8981958,"lon":107.6459863,"tags":{"description":"PKM sEntra","name":"F 108","office":"company"}},{"type":"node","id":4863109272,"lat":-6.8982455,"lon":107.6459727,"tags":{"description":"UKM Sepak Bola","name":"F 107","office":"company"}},{"type":"node","id":4863109273,"lat":-6.8982757,"lon":107.6459487,"tags":{"description":"UKM Bramatala","name":"F 106","office":"company"}},{"type":"node","id":4863109274,"lat":-6.8982587,"lon":107.6458832,"tags":{"description":"UKM Bola Basket","name":"F 105","office":"company"}},{"type":"node","id":4863109275,"lat":-6.8982392,"lon":107.6458293,"tags":{"description":"UKM Keluarga Mahasiswa Budha","name":"F 104","office":"company"}},{"type":"node","id":4863109276,"lat":-6.8982209,"lon":107.645766,"tags":{"description":"UKM Keluarga Mahasiswa Katolik","name":"F 103","office":"company"}},{"type":"node","id":4863109277,"lat":-6.8982054,"lon":107.6457119,"tags":{"description":"UKM PMK","name":"F 102","office":"company"}},{"type":"node","id":4863109278,"lat":-6.8981882,"lon":107.6456559,"tags":{"description":"UKM Jepang","name":"F 101","office":"company"}},{"type":"node","id":4863189965,"lat":-6.8979779,"lon":107.645877,"tags":{"description":"Majelis Permusyawarahan Mahasiswa","name":"F 207","office":"company"}},{"type":"node","id":4991461622,"lat":-6.938319,"lon":107.619314,"tags":{"addr:street":"Jalan BKR","name":"Kantor Go-Jek Bandung","office":"company"}},{"type":"node","id":4991472625,"lat":-6.8783195,"lon":107.5772542,"tags":{"addr:postcode":"40151","addr:street":"Jalan Sarimanah","name":"Ganesha Operation Gedung A","office":"company"}},{"type":"node","id":4991472626,"lat":-6.8782163,"lon":107.5773035,"tags":{"addr:postcode":"40151","addr:street":"Jalan Sarimanah","name":"Ganesha Operation Gedung B","office":"educational_institution"}},{"type":"node","id":4991484725,"lat":-6.8782534,"lon":107.5760883,"tags":{"addr:street":"Jalan Sarimanis 13","name":"GSG RW 08","office":"government"}},{"type":"node","id":4991489921,"lat":-6.8783146,"lon":107.5762351,"tags":{"addr:postcode":"40151","name":"Karang Taruna Unit RW 08","office":"government"}},{"type":"node","id":5038788298,"lat":-6.8751754,"lon":107.5630247,"tags":{"name":"PPPPTK Bidang Mesin dan Teknik Industri","office":"government"}},{"type":"node","id":5066656021,"lat":-6.9957256,"lon":107.628027,"tags":{"name":"Rumah Bandung","office":"company"}},{"type":"node","id":5080825724,"lat":-6.9146774,"lon":107.5937233,"tags":{"addr:city":"Bandung","addr:postcode":"40172","addr:street":"Ruko Paskal Hypersquare","addr:unit":"F35-37","name":"Grab","office":"company","opening_hours":"Mo-Fr 10:00-17:00","smoking":"outside"}},{"type":"node","id":5080848432,"lat":-6.9061733,"lon":107.6294381,"tags":{"addr:city":"Bandung","addr:housenumber":"29","addr:postcode":"40114","addr:street":"Jalan WR. Supratman","internet_access":"yes","name":"Postcard Cafe&Co","office":"coworking","opening_hours":"Mo-Su 09:00-21:00"}},{"type":"node","id":5117194922,"lat":-6.9046537,"lon":107.6679116,"tags":{"addr:street":"Jalan A.H Nasution","name":"Perintex","office":"company"}},{"type":"node","id":5123512123,"lat":-6.9611938,"lon":107.6245929,"tags":{"name":"Ksp Kodanua","office":"company"}},{"type":"node","id":5209508922,"lat":-6.9201277,"lon":107.5853672,"tags":{"addr:street":"Jalan Jamika Baru 1","name":"Wans","office":"company"}},{"type":"node","id":5268872148,"lat":-6.9467529,"lon":107.6389635,"tags":{"addr:city":"Bandung","addr:housenumber":"2-4","addr:postcode":"40266","addr:street":"Jalan Sekelimus Utara","check_date":"2023-09-30","name":"Tribun Jabar","office":"newspaper"}},{"type":"node","id":5281162621,"lat":-6.8825953,"lon":107.6005324,"tags":{"addr:city":"Bandung","addr:housenumber":"Jl. Dr. Setiabudhi No. 35","addr:postcode":"40154","name":"Regata Hotel","office":"architect"}},{"type":"node","id":5281470522,"lat":-6.9066747,"lon":107.5671782,"tags":{"name":"PT Daya Adicipta Motora","office":"company"}},{"type":"node","id":5780793068,"lat":-6.9831349,"lon":107.6939212,"tags":{"addr:city":"Bandung","addr:housenumber":"57","addr:postcode":"40287","addr:street":"Jalan Raya Sapan","government":"public_service","name":"Kantor Desa Tegalluar","office":"government","opening_hours":"Mo-Sa 07:30-16:00"}},{"type":"node","id":5883215585,"lat":-6.9426107,"lon":107.6007744,"tags":{"addr:housenumber":"37","addr:postcode":"40235","addr:street":"Jalan Muara Selatan","name":"Studio Radio Rama 104.7 FM Bandung","office":"company","phone":"+62 022 5211642","website":"https://www.ramafm.com/"}},{"type":"node","id":5884677085,"lat":-6.9427019,"lon":107.6007259,"tags":{"addr:housenumber":"37","addr:postcode":"40235","addr:street":"Jalan Muara Selatan","name":"Studio Paramuda Radio Bandung 93.7 FM (RAMA Group)","office":"company","phone":"+62 22 5226 644","website":"http://www.paramudaradio.com"}},{"type":"node","id":5961528196,"lat":-6.9380087,"lon":107.6140907,"tags":{"addr:housenumber":"99","addr:postcode":"40254","addr:street":"Jalan BKR","name":"Rapij Jaya Tailor","office":"company","opening_hours":"Mo-Sa 07:00-17:00"}},{"type":"node","id":6006889690,"lat":-6.9411136,"lon":107.6661288,"tags":{"addr:housenumber":"12","addr:street":"Venus Barat IV","name":"Consultant","office":"company","opening_hours":"Su-Fr 09:00-17:00"}},{"type":"node","id":6657073005,"lat":-6.8942726,"lon":107.6835823,"tags":{"addr:city":"Bandung","addr:housenumber":"106","addr:postcode":"40195","addr:street":"Jalan Sindanglaya","government":"administrative","name":"Balai Pengembangan dan Produksi Benih Perkebunan (BPPBP)","office":"government","phone":"+62 22 783 187","website":"http://bpbtp.disbun.jabarprov.go.id/"}},{"type":"node","id":6790495488,"lat":-6.9037836,"lon":107.6658591,"tags":{"name":"J&T Express","office":"company"}},{"type":"node","id":6794723485,"lat":-6.9035228,"lon":107.6654039,"tags":{"name":"Jne","office":"company"}},{"type":"node","id":6801061213,"lat":-6.9579089,"lon":107.6263878,"tags":{"name":"Tiara Bunda","office":"company"}},{"type":"node","id":7047419866,"lat":-6.8873439,"lon":107.6175489,"tags":{"addr:city":"Bandung, Jawa Barat","addr:housenumber":"77","addr:postcode":"40134","addr:street":"Jalan Sekeloa Utara 1","name":"D'Kurir - Ekspedisi","office":"courier","opening_hours":"Mo-Su 08:00-17:00"}},{"type":"node","id":7124266785,"lat":-6.9625282,"lon":107.6248288,"tags":{"name":"Kantor HIPSI Jabar","office":"government"}},{"type":"node","id":7894517691,"lat":-6.914691,"lon":107.6473545,"tags":{"addr:city":"Bandung","addr:country":"ID","addr:housenumber":"Jl. Atlas Raya No.KAVLING 24, Babakan Surabaya, Kec. Kiaracondong, Kota Bandung","addr:postcode":"40281","addr:street":"Jalan Atlas Raya","name":"TDS RIG GAIN","office":"educational_institution","opening_hours":"Mo-Sa 08:00-18:00","phone":"+62 8112045588","source":"survey;local knowledge;gps","website":"https://www.tdsriggain.com/"}},{"type":"node","id":8075331866,"lat":-6.878093,"lon":107.5737132,"tags":{"name":"Ruang Koperasi","office":"yes"}},{"type":"node","id":8759171407,"lat":-6.9421246,"lon":107.6676409,"tags":{"name":"Kantor RW","office":"government"}},{"type":"node","id":9156878646,"lat":-6.9691919,"lon":107.552776,"tags":{"addr:city":"Bandung","addr:housenumber":"73","addr:street":"Taman Kopo Indah III Blok E","name":"Easy Net","office":"telecommunication","phone":"+622254439999"}},{"type":"node","id":9589431728,"lat":-6.9452621,"lon":107.5945528,"tags":{"government":"government","name":"Situsaeur","office":"government"}},{"type":"node","id":9662347854,"lat":-6.925236,"lon":107.6186028,"tags":{"addr:city":"Burangrang, Kota Bandung, Jawa Barat","addr:housenumber":"24","addr:postcode":"40262","addr:street":"Jalan Emong","name":"TransTRACK.ID Bandung","office":"company","opening_hours":"Mo-Fr 09:00-18:00","phone":"+622287324479","website":"https://transtrack.id"}},{"type":"node","id":9677551922,"lat":-6.9060627,"lon":107.6702294,"tags":{"addr:city":"Sukamiskin Arcamanik Bandung","addr:housenumber":"09","addr:postcode":"40293","addr:street":"Jalan Sarimas Utara I","name":"PT. Insatek Maju Bersama - Administration Office","office":"company","opening_hours":"Mo-Fr 10:00-16:00","opening_hours:covid19":"restricted","phone":"+62 853 2222","source":"microbiology,biotechnology,halal, species,pcr,rtpcr,solvent, chemical,referencematerial,proficiencytesting,animaltesting","website":"https://insatek.id"}},{"type":"node","id":9743382688,"lat":-6.9083174,"lon":107.6239368,"tags":{"addr:city":"Bandung","addr:full":"Jl. L. L. R.E. Martadinata No. 90, Cihapit, Bandung Wetan","name":"Pos Satpam 90 Gourmet","office":"security","source":"S2City_POI_2022"}},{"type":"node","id":9743382689,"lat":-6.9047018,"lon":107.618182,"tags":{"addr:city":"Bandung","addr:full":"Jl. Progo No. 14, Citarum, Bandung Wetan","name":"Pos Satpam Hummingbird","office":"security","source":"S2City_POI_2022"}},{"type":"node","id":9743382690,"lat":-6.9062164,"lon":107.6180366,"tags":{"addr:city":"Bandung","addr:full":"Jl. L. L. R.E. Martadinata No. 48, Citarum, Bandung Wetan","check_date":"2026-05-04","name":"Pos Satpam Goethe Institut Bandung","office":"security","source":"S2City_POI_2022"}},{"type":"node","id":9743382691,"lat":-6.9064653,"lon":107.626196,"tags":{"addr:city":"Bandung","addr:full":"Jl. Cibuni, Cihapit, Bandung Wetan","name":"Pos Satpam","office":"security","source":"S2City_POI_2022"}},{"type":"node","id":9743382692,"lat":-6.9051569,"lon":107.6225683,"tags":{"addr:city":"Bandung","addr:full":"Jl. Ciliwung No.2, Cihapit, Bandung Wetan","name":"Pos Satpam","office":"security","source":"S2City_POI_2022"}},{"type":"node","id":9743382693,"lat":-6.9046021,"lon":107.6280373,"tags":{"addr:city":"Bandung","addr:full":"Jl. Supratman No. 43A, Cihapit, Bandung Wetan","name":"Pos Satpam Hotel Corsica","office":"security","source":"S2City_POI_2022"}},{"type":"node","id":9743382694,"lat":-6.9025261,"lon":107.6250688,"tags":{"addr:city":"Bandung","addr:full":"Jl. Ciwulan No. 32, Cihapit, Bandung Wetan","name":"Pos Satpam","office":"security","source":"S2City_POI_2022"}},{"type":"node","id":9743382695,"lat":-6.9067925,"lon":107.6205641,"tags":{"addr:city":"Bandung","addr:full":"Jl. Lombok No. 53, Citarum, Bandung Wetan","name":"Pos satpam","office":"security","source":"S2City_POI_2022"}},{"type":"node","id":9743382696,"lat":-6.9003647,"lon":107.6134333,"tags":{"addr:city":"Bandung","addr:full":"Jl. Pangeran Kornel, Citarum, Bandung Wetan","name":"Pos Satpam RW 4","office":"security","source":"S2City_POI_2022"}},{"type":"node","id":9743382697,"lat":-6.9048489,"lon":107.6204538,"tags":{"addr:city":"Bandung","addr:full":"Jl. Cimanuk No. 8, Citarum, Bandung Wetan","amenity":"security_booth","name":"Pos Satpam Justus Steak House","office":"security","source":"POI_WRI_Survey_2023","wheelchair":"no"}},{"type":"node","id":9743382698,"lat":-6.8996121,"lon":107.6134982,"tags":{"addr:city":"Bandung","addr:full":"Jl. Pangeran Kornel No. 3, Citarum, Bandung Wetan","name":"Pos Satpam Rumah","office":"security","source":"S2City_POI_2022"}},{"type":"node","id":9743382699,"lat":-6.9057199,"lon":107.6232645,"tags":{"addr:city":"Bandung","addr:full":"Jl. Ciliwung No.4, Cihapit, Bandung Wetan","name":"Pos Satpam SMK N 2 Bandung","office":"security","source":"S2City_POI_2022"}},{"type":"node","id":9743382700,"lat":-6.9051659,"lon":107.6251388,"tags":{"addr:city":"Bandung","addr:full":"Jl. Taman Cibeunying No. 2, Cihapit, Bandung Wetan","name":"Pos Satpam","office":"security","source":"S2City_POI_2022"}},{"type":"node","id":9743382701,"lat":-6.9065997,"lon":107.6208935,"tags":{"addr:city":"Bandung","addr:full":"Jl. Lombok No. 57, Citarum, Bandung Wetan","name":"Pos Satpam Gudeg Banda","office":"security","source":"S2City_POI_2022"}},{"type":"node","id":9743382702,"lat":-6.9062344,"lon":107.6174767,"tags":{"addr:city":"Bandung","addr:full":"Jl. L. L. R.E. Martadinata No. 20, Citarum, Bandung Wetan","name":"Pos Satpam Graha Pos","office":"security","source":"S2City_POI_2022"}},{"type":"node","id":9743382703,"lat":-6.9031345,"lon":107.6266107,"tags":{"addr:city":"Bandung","addr:full":"Jl. Cipunagara No. 16, Cihapit, Bandung Wetan","name":"Pos Satpam","office":"security","source":"S2City_POI_2022"}},{"type":"node","id":9743382704,"lat":-6.9014335,"lon":107.6252871,"tags":{"addr:city":"Bandung","addr:full":"Jl. Citarum","name":"Pos Satpam Dinas Kesehatan","office":"security","source":"S2City_POI_2022"}},{"type":"node","id":9743382705,"lat":-6.9085828,"lon":107.615762,"tags":{"addr:city":"Bandung","addr:full":"Jl. Saparua","name":"Pos Satpam","office":"security","source":"S2City_POI_2022"}},{"type":"node","id":9743382706,"lat":-6.9044689,"lon":107.6257258,"tags":{"addr:city":"Bandung","addr:full":"Jl. Cilaki No. 51, Cihapit, Bandung Wetan","name":"Pos Satpam Balai Pengamanan dan Pemanfaatan Aset BPKAD Provinsi Jawa Barat","office":"security","source":"S2City_POI_2022"}},{"type":"node","id":9743382707,"lat":-6.9045841,"lon":107.6237616,"tags":{"addr:city":"Bandung","addr:full":"Jl Taman Cibeunying Selatan No. 45, Cihapit, Bandung Wetan","name":"Pos Satpam Selaras","office":"security","source":"S2City_POI_2022"}},{"type":"node","id":9743382708,"lat":-6.9054863,"lon":107.6233729,"tags":{"addr:city":"Bandung","addr:full":"Jl. Ciliwung No.5, Cihapit, Bandung Wetan","name":"Pos Satpam PT PLN","office":"security","source":"S2City_POI_2022"}},{"type":"node","id":9743382709,"lat":-6.9093121,"lon":107.6278388,"tags":{"addr:city":"Bandung","addr:full":"Jl. Cendana, Cihapit, Bandung Wetan","name":"Pos Kamling RT 07 RW 06","office":"security","source":"S2City_POI_2022"}},{"type":"node","id":9743382710,"lat":-6.9027626,"lon":107.6242365,"tags":{"addr:city":"Bandung","addr:full":"Jl. Cipunagara","name":"Pos Satpam Cipunagara","office":"security","source":"S2City_POI_2022"}},{"type":"node","id":9743382711,"lat":-6.9003138,"lon":107.6131989,"tags":{"addr:city":"Bandung","addr:full":"Jl. Diponegoro No. 1, Citarum, Bandung Wetan","name":"Pos Satpam Celebrate","office":"security","source":"S2City_POI_2022"}},{"type":"node","id":9743382712,"lat":-6.9047665,"lon":107.621144,"tags":{"addr:city":"Bandung","addr:full":"Jl. Taman Citarum, Citarum, Bandung Wetan","name":"Pos Satpam SD Istiqamah","office":"security","source":"S2City_POI_2022"}},{"type":"node","id":9743382713,"lat":-6.9072354,"lon":107.6265904,"tags":{"addr:city":"Bandung","addr:full":"Jl. Taman Cibeunying Utara No.2, Cihapit, Kec. Bandung Wetan","name":"Pos Satpam GPIB Maranatha","office":"security","source":"S2City_POI_2022"}},{"type":"node","id":9743382714,"lat":-6.906059,"lon":107.6208989,"tags":{"addr:city":"Bandung","addr:full":"Jl. L. L. R.E. Martadinata No. 72, Citarum, Bandung Wetan","check_date":"2026-05-04","name":"Pos Satpam KFC","office":"security","source":"S2City_POI_2022"}},{"type":"node","id":9743382715,"lat":-6.9044775,"lon":107.6274647,"tags":{"addr:city":"Bandung","addr:full":"Jl. Cipunagara, Cihapit, Bandung Wetan","name":"Pos Satpam Jl. Cipunagara","office":"security","source":"S2City_POI_2022"}},{"type":"node","id":9743382716,"lat":-6.9032169,"lon":107.6258336,"tags":{"addr:city":"Bandung","addr:full":"Jl. Cipunagara No. 25, Cihapit, Bandung Wetan","name":"Pos Satpam","office":"security","source":"S2City_POI_2022"}},{"type":"node","id":9743419117,"lat":-6.9043582,"lon":107.6228138,"tags":{"addr:city":"Bandung","addr:full":"Jl Citarum No. 16, Cihapit, Bandung Wetan","name":"Pos Satpam Citarum Hotel","office":"security","source":"S2City_POI_2022"}},{"type":"node","id":9743419118,"lat":-6.9065535,"lon":107.6249247,"tags":{"addr:city":"Bandung","addr:full":"Jl. Taman Cibeunying Selatan, Cihapit, Bandung Wetan","name":"Pos Satpam","office":"security","source":"S2City_POI_2022"}},{"type":"node","id":9743419119,"lat":-6.9032792,"lon":107.6233937,"tags":{"addr:city":"Bandung","addr:full":"Jl. Citarum, Citarum, Bandung Wetan","amenity":"security_booth","name":"Pos Keamanan RW 08","office":"security","source":"POI_WRI_Survey_2023","wheelchair":"no"}},{"type":"node","id":9743419120,"lat":-6.9066152,"lon":107.6283982,"tags":{"addr:city":"Bandung","addr:full":"Jl. Rasamala, Cihapit, Bandung Wetan","name":"Pos Satpam","office":"security","source":"S2City_POI_2022"}},{"type":"node","id":9743419121,"lat":-6.9060723,"lon":107.6243273,"tags":{"addr:city":"Bandung","addr:full":"Jl. Taman Cibeunying 31 Cihapit, Bandung Wetan","name":"Pos Satpam Bank OCBC","office":"security","source":"S2City_POI_2022"}},{"type":"node","id":9743419122,"lat":-6.8992001,"lon":107.6135891,"tags":{"addr:city":"Bandung","addr:full":"Jl. Pangeran Kornel No. 7, Citarum, Bandung Wetan","name":"Pos Satpam RW 4","office":"security","source":"S2City_POI_2022"}},{"type":"node","id":9743419123,"lat":-6.9092551,"lon":107.6250526,"tags":{"addr:city":"Bandung","addr:full":"Jl. L. L. R.E. Martadinata No. 104, Cihapit, Bandung Wetan","name":"Pos Satpam J.Chicken","office":"security","source":"S2City_POI_2022"}},{"type":"node","id":9743419124,"lat":-6.9057205,"lon":107.6196058,"tags":{"addr:city":"Bandung","addr:full":"Jl. L. L. R.E. Martadinata No. 93-95, Citarum, Bandung Wetan","name":"Pos Satpam Taruna Bakti","office":"security","source":"S2City_POI_2022"}},{"type":"node","id":9743419125,"lat":-6.907117,"lon":107.6241996,"tags":{"addr:city":"Bandung","addr:full":"Jl. Brantas, Cihapit, Bandung Wetan","name":"Pos Satpam","office":"security","source":"S2City_POI_2022"}},{"type":"node","id":9743419126,"lat":-6.906114,"lon":107.6267077,"tags":{"addr:city":"Bandung","addr:full":"Jl. Bengawan No. 84, Cihapit, Bandung Wetan","name":"Pos Satpam","office":"security","source":"S2City_POI_2022"}},{"type":"node","id":9743419127,"lat":-6.9045205,"lon":107.6186872,"tags":{"addr:city":"Bandung","addr:full":"Jl. Progo No. 17, Citarum, Bandung Wetan","name":"Pos Satpam LBH UNPAD","office":"security","source":"S2City_POI_2022"}},{"type":"node","id":9743419128,"lat":-6.9078585,"lon":107.6171865,"tags":{"addr:city":"Bandung","addr:full":"Jl. Banda No 28, Citarum, Bandung Wetan","name":"Pos Satpam SatPolPP Provinsi Jawa Barat","office":"security","source":"S2City_POI_2022"}},{"type":"node","id":9743419129,"lat":-6.9103811,"lon":107.6306425,"tags":{"addr:city":"Bandung","addr:full":"Jl. Salam, Cihapit, Bandung Wetan","name":"Pos Satpam Jalan Salam","office":"security","source":"S2City_POI_2022"}},{"type":"node","id":9743419130,"lat":-6.905369,"lon":107.6216535,"tags":{"addr:city":"Bandung","addr:full":"Jl. Taman Citarum 4 Cihapit, Bandung Wetan","name":"Pos Satpam BSI KC Citarum","office":"security","source":"S2City_POI_2022"}},{"type":"node","id":9743419131,"lat":-6.9070013,"lon":107.6195167,"tags":{"addr:city":"Bandung","addr:full":"Jl. Lombok No. 45, Citarum, Bandung Wetan","name":"Pos Satpam Shukaku","office":"security","source":"S2City_POI_2022"}},{"type":"node","id":9743419132,"lat":-6.9083204,"lon":107.6201675,"tags":{"addr:city":"Bandung","addr:full":"Jl. Sabang No.2a, Cihapit, Bandung Wetan","name":"Pos Satpam Kantor Lurah Cihapit","office":"security","source":"S2City_POI_2022"}},{"type":"node","id":9743419133,"lat":-6.9088706,"lon":107.6260389,"tags":{"addr:city":"Bandung","addr:full":"Jl. Serayu, Cihapit, Bandung Wetan","name":"Pos Satpam","office":"security","source":"S2City_POI_2022"}},{"type":"node","id":9743419134,"lat":-6.8998757,"lon":107.6155345,"tags":{"addr:city":"Bandung","addr:full":"Jl. Adipati Kertabumi","name":"Pos Satpam di Aria Kertabumi","office":"security","source":"S2City_POI_2022"}},{"type":"node","id":9749128083,"lat":-6.8713828,"lon":107.6136382,"tags":{"addr:city":"Bandung","addr:full":"Jalan Kampung Padi","name":"Pos Satpam Kampung Padi","office":"security","source":"S2City_POI_2022"}},{"type":"node","id":9749128084,"lat":-6.8786713,"lon":107.6144434,"tags":{"addr:city":"Bandung","addr:full":"Jalan Imperial I","check_date":"2026-02-01","name":"Pos Keamanan Imperial I","office":"security","source":"S2City_POI_2022"}},{"type":"node","id":9749128085,"lat":-6.8770315,"lon":107.6136255,"tags":{"addr:city":"Bandung","addr:full":"Jalan Dago Asri III","name":"Pos Keamanan Dago Asri III","office":"security","source":"S2City_POI_2022"}},{"type":"node","id":9749128086,"lat":-6.8830993,"lon":107.6099126,"tags":{"addr:city":"Bandung","addr:full":"Jalan Sangkuriang","name":"Pos Satpam Dago Suites","office":"security","source":"S2City_POI_2022"}},{"type":"node","id":9749128087,"lat":-6.8720822,"lon":107.6165899,"tags":{"addr:city":"Bandung","addr:full":"Jalan Dago Pojok","name":"Pos Satpam Komplek Batan","office":"security","source":"S2City_POI_2022"}},{"type":"node","id":9749128088,"lat":-6.8783051,"lon":107.613258,"tags":{"addr:city":"Bandung","addr:full":"Jalan Dago Asri IV","check_date":"2026-02-01","name":"Pos Keamanan Alpina","office":"security","source":"S2City_POI_2022"}},{"type":"node","id":9749128089,"lat":-6.8750361,"lon":107.6161074,"tags":{"addr:city":"Bandung","addr:full":"Jalan Dago Asri 1","name":"Pos Keamanan B Dago Asri","office":"security","source":"S2City_POI_2022"}},{"type":"node","id":9749128090,"lat":-6.8784631,"lon":107.6096525,"tags":{"addr:city":"Bandung","addr:full":"Jalan Sangkuriang Dalam","addr:postcode":"40135","addr:street":"Jl. Sangkuriang Dalam No.60/160A","name":"Pos Satpam Rusunawa Sangkuriang","office":"security","source":"S2City_POI_2022"}},{"type":"node","id":9749128091,"lat":-6.8783338,"lon":107.6152373,"tags":{"addr:city":"Bandung","addr:full":"Jalan Dago Asri Raya","check_date":"2026-04-22","name":"Pos Keamanan Asri I","office":"security","source":"S2City_POI_2022"}},{"type":"node","id":9749128092,"lat":-6.8747232,"lon":107.6160748,"tags":{"addr:city":"Bandung","addr:full":"Gang H. Husin","name":"Pos Ronda RT 05","office":"security","source":"S2City_POI_2022"}},{"type":"node","id":9751667060,"lat":-6.8903371,"lon":107.6190068,"tags":{"addr:city":"Bandung","addr:full":"Jalan Sekeloa Selatan 1","name":"Pos Satpam FKG UNPAD","office":"security","source":"S2City_POI_2022"}},{"type":"node","id":9751667061,"lat":-6.889044,"lon":107.6158627,"tags":{"addr:city":"Bandung","addr:full":"Jalan Dipatiukur No. 80","check_date":"2025-08-09","name":"Pos Satpam ITHB","office":"security","source":"S2City_POI_2022"}},{"type":"node","id":9751667062,"lat":-6.8921985,"lon":107.6153234,"tags":{"abandoned":"yes","addr:city":"Bandung","addr:full":"Jalan Imam Bonjol","amenity":"security_booth","name":"Pos Satpam","office":"security","source":"POI_WRI_Survey_2023","wheelchair":"no"}},{"type":"node","id":9751667063,"lat":-6.8915879,"lon":107.6154026,"tags":{"addr:city":"Bandung","addr:full":"Jalan Imam Bonjol","amenity":"security_booth","check_date":"2026-03-06","name":"Pos Satpam","office":"security","source":"POI_WRI_Survey_2023","wheelchair":"no"}},{"type":"node","id":9751667064,"lat":-6.8946742,"lon":107.616063,"tags":{"addr:city":"Bandung","addr:full":"Jalan Tengku Angkasa","check_date":"2025-05-22","name":"Pos Satpam RW 09 RT 01","office":"security","source":"S2City_POI_2022"}},{"type":"node","id":9751854296,"lat":-6.8956029,"lon":107.6198488,"tags":{"addr:city":"Bandung","addr:full":"Jl. Titiran Dalam II","name":"Pos Linmas","office":"security","source":"S2City_POI_2022"}},{"type":"node","id":9751854297,"lat":-6.8984431,"lon":107.620341,"tags":{"addr:city":"Bandung","addr:full":"Jl. Dederuk","name":"Pos Kamling RW 08 Sadang Serang","office":"security","source":"S2City_POI_2022"}},{"type":"node","id":9751854298,"lat":-6.8972215,"lon":107.6198179,"tags":{"addr:city":"Bandung","addr:full":"Jl. Titiran","name":"Pos Kamling RW 07 Sadang Serang","office":"security","source":"S2City_POI_2022"}},{"type":"node","id":9751854299,"lat":-6.896432,"lon":107.6197703,"tags":{"addr:city":"Bandung","addr:full":"Jl. Titiran","name":"Pos Keamanan RW 07 Sadang Serang","office":"security","source":"S2City_POI_2022"}},{"type":"node","id":9751854300,"lat":-6.8963731,"lon":107.6220626,"tags":{"addr:city":"Bandung","addr:full":"Jl. Gelatik Dalam","name":"Pos Kamling RW 06 Sadang Serang","office":"security","source":"S2City_POI_2022"}},{"type":"node","id":9751854301,"lat":-6.8950926,"lon":107.6210544,"tags":{"addr:city":"Bandung","addr:full":"Jl. Titiran Dalam","name":"Pos Keamanan RW 05 Sadang Serang","office":"security","source":"S2City_POI_2022"}},{"type":"node","id":9751854302,"lat":-6.8945737,"lon":107.625351,"tags":{"addr:city":"Bandung","addr:full":"Kp. Pasir koja","name":"Pos Kamling RW15 Sadang Serang","office":"security","source":"S2City_POI_2022"}},{"type":"node","id":9751854303,"lat":-6.8932612,"lon":107.6274857,"tags":{"addr:city":"Bandung","addr:full":"Jl. Gagak","name":"Pos Linmas RW 19 Sadang Serang","office":"security","source":"S2City_POI_2022"}},{"type":"node","id":9751854304,"lat":-6.893419,"lon":107.6235817,"tags":{"addr:city":"Bandung","addr:full":"Jl. Intan","name":"Pos Linmas","office":"security","source":"S2City_POI_2022"}},{"type":"node","id":9751854305,"lat":-6.8919605,"lon":107.620067,"tags":{"addr:city":"Bandung","addr:full":"Jl. Sukasari II","name":"Pos Linmas","office":"security","source":"S2City_POI_2022"}},{"type":"node","id":9751854306,"lat":-6.88744,"lon":107.6210866,"tags":{"addr:city":"Bandung","addr:full":"Jl. Alamanda","name":"Pos Satpam Komplek Alamanda Dago Permai","office":"security","source":"S2City_POI_2022"}},{"type":"node","id":9751854307,"lat":-6.8880061,"lon":107.6247451,"tags":{"addr:city":"Bandung","addr:full":"Jl. Sadang Sari","name":"Pos Kamling RT 03 RW 14 Sekeloa","office":"security","source":"S2City_POI_2022"}},{"type":"node","id":9751854308,"lat":-6.8882371,"lon":107.6239304,"tags":{"addr:city":"Bandung","addr:full":"Jl. Tubagus Ismail Indah","name":"Pos Satpam Terusan Tubagus Ismail Indah","office":"security","source":"S2City_POI_2022"}},{"type":"node","id":9751854309,"lat":-6.8902576,"lon":107.6239163,"tags":{"addr:city":"Bandung","addr:full":"Jl. Sadangsari","name":"Pos Satpam Kampoeng Geulis Residence","office":"security","source":"S2City_POI_2022"}},{"type":"node","id":9751854310,"lat":-6.8891398,"lon":107.6226403,"tags":{"addr:city":"Bandung","addr:full":"Gang sukalaksa RT 1 RW 4","name":"Pos Kamling","office":"security","source":"S2City_POI_2022"}},{"type":"node","id":9751854311,"lat":-6.8880627,"lon":107.6199145,"tags":{"addr:city":"Bandung","addr:full":"Jl. Sekeloa utara","name":"Pos Jaga Aula Serbaguna RW 05 Sekeloa","office":"security","source":"S2City_POI_2022"}},{"type":"node","id":9751854312,"lat":-6.8879682,"lon":107.6255672,"tags":{"addr:city":"Bandung","addr:full":"Jl. Palem II","name":"Pos Satpam Brinka","office":"security","source":"S2City_POI_2022"}},{"type":"node","id":9751854313,"lat":-6.8913413,"lon":107.6293743,"tags":{"addr:city":"Bandung","addr:full":"Jl. Cikondang","name":"Pos Kamling Brigadir RW 20 Cikondang","office":"security","source":"S2City_POI_2022"}},{"type":"node","id":9751854314,"lat":-6.8891279,"lon":107.6276755,"tags":{"addr:city":"Bandung","addr:full":"Jl. Cibeunying Kolot III","name":"Pos Linmas RT 04 RW 21","office":"security","source":"S2City_POI_2022"}},{"type":"node","id":9751854315,"lat":-6.8876926,"lon":107.6237366,"tags":{"addr:city":"Bandung","addr:full":"Jl. Sadang Luhur","name":"Pos Linmas RW 15","office":"security","source":"S2City_POI_2022"}},{"type":"node","id":9751854316,"lat":-6.8862899,"lon":107.6187437,"tags":{"addr:city":"Bandung","addr:full":"Jl. Ciheulang II","name":"Pos Kamling RW 05","office":"security","source":"S2City_POI_2022"}},{"type":"node","id":9751879817,"lat":-6.8860995,"lon":107.6163813,"tags":{"addr:city":"Bandung","addr:full":"Jl. Tubagus Ismail Dalam","name":"Pos Kamling","office":"security","source":"S2City_POI_2022"}},{"type":"node","id":9751879818,"lat":-6.885693,"lon":107.6227135,"tags":{"addr:city":"Bandung","addr:full":"Jl. Tubagus Ismail Raya","name":"Pos Linmas RW 12 Babakan Sembung","office":"security","source":"S2City_POI_2022"}},{"type":"node","id":9751879819,"lat":-6.8855548,"lon":107.6217282,"tags":{"addr:city":"Bandung","addr:full":"Jl. Alamanda","name":"Pos Satpam Perum Alamanda Dago Permai","office":"security","source":"S2City_POI_2022"}},{"type":"node","id":9751879820,"lat":-6.884978,"lon":107.6193857,"tags":{"addr:city":"Bandung","addr:full":"Jl. Tubagus Ismail VII","name":"Pos Satpam","office":"security","source":"S2City_POI_2022"}},{"type":"node","id":9751879821,"lat":-6.8843107,"lon":107.6205127,"tags":{"addr:city":"Bandung","addr:full":"Jl. Tubagus Ismail XII","name":"Pos Satpam","office":"security","source":"S2City_POI_2022"}},{"type":"node","id":9751879822,"lat":-6.8854904,"lon":107.624886,"tags":{"addr:city":"Bandung","addr:full":"Jl. Terusan Cigadung Timur","name":"Pos Satpam Kavling 8","office":"security","source":"S2City_POI_2022"}},{"type":"node","id":9751879823,"lat":-6.8847907,"lon":107.6243502,"tags":{"addr:city":"Bandung","addr:full":"Jl. Terusan Cigadung Timur","name":"Pos Satpam Perumahan Lembah Tubagus Ismail","office":"security","source":"S2City_POI_2022"}},{"type":"node","id":9751879824,"lat":-6.8828189,"lon":107.6207768,"tags":{"addr:city":"Bandung","addr:full":"Jl. Tubagus Ismail VIII Atas","name":"Pos satpam","office":"security","source":"S2City_POI_2022"}},{"type":"node","id":9751879825,"lat":-6.8833062,"lon":107.6200506,"tags":{"addr:city":"Bandung","addr:full":"Jl. Tubagus Ismail XII","name":"Pos Kamling","office":"security","source":"S2City_POI_2022"}},{"type":"node","id":9751879826,"lat":-6.8830319,"lon":107.619665,"tags":{"addr:city":"Bandung","addr:full":"Jl. Tubagus Ismail XII","name":"Pos satpam","office":"security","source":"S2City_POI_2022"}},{"type":"node","id":9751879827,"lat":-6.8828022,"lon":107.6194096,"tags":{"addr:city":"Bandung","addr:full":"Jl. Tubagus Ismail VII","name":"Pos Satpam Klinik Utama CMI","office":"security","source":"S2City_POI_2022"}},{"type":"node","id":9751879828,"lat":-6.882279,"lon":107.6193848,"tags":{"addr:city":"Bandung","addr:full":"Jl. Tubagus Ismail XV","name":"Pos satpam","office":"security","source":"S2City_POI_2022"}},{"type":"node","id":9751879829,"lat":-6.8822717,"lon":107.6176795,"tags":{"addr:city":"Bandung","addr:full":"Jl. Tubagus Ismail XVI","name":"Pos Satpam","office":"security","source":"S2City_POI_2022"}},{"type":"node","id":9751879830,"lat":-6.8807199,"lon":107.6180973,"tags":{"addr:city":"Bandung","addr:full":"Jl. Bambayang 50a","name":"Pos kamling","office":"security","source":"S2City_POI_2022"}},{"type":"node","id":9751879831,"lat":-6.8805491,"lon":107.6187467,"tags":{"addr:city":"Bandung","addr:full":"Jl. Bambayang 76","name":"Pos Kamling Sabilulungan RW 08","office":"security","source":"S2City_POI_2022"}},{"type":"node","id":9753194430,"lat":-6.8980576,"lon":107.608216,"tags":{"addr:city":"Bandung","addr:full":"Jl Tamansari","name":"Pos Jaga RW 4","office":"security","source":"S2City_POI_2022"}},{"type":"node","id":9794395818,"lat":-6.9304702,"lon":107.6228005,"tags":{"addr:city":"Bandung","addr:housenumber":"69","addr:street":"Jalan Lodaya","name":"WebHozz Bandung","office":"company","website":"https://www.webhozz.com/"}},{"type":"node","id":9795529117,"lat":-6.9376946,"lon":107.6216665,"tags":{"addr:housenumber":"9A","addr:postcode":"40265","addr:street":"Jalan BKR","name":"TUNAS","office":"company"}},{"type":"node","id":9803298007,"lat":-6.8912561,"lon":107.5545598,"tags":{"government":"administrative","name":"Kantor Kelurahan Cigugur Tengah","office":"government"}},{"type":"node","id":9803403258,"lat":-6.9005959,"lon":107.5999474,"tags":{"name":"Direktorat Metrologi Bandung","office":"government"}},{"type":"node","id":9808051268,"lat":-6.8644627,"lon":107.5932573,"tags":{"name":"Kantor Kelurahan Isola","office":"government"}},{"type":"node","id":9808289612,"lat":-6.9158827,"lon":107.6289609,"tags":{"government":"education","name":"Dinas Pendidikan Kota Bandung","office":"government"}},{"type":"node","id":9808321167,"lat":-6.9206883,"lon":107.5588219,"tags":{"name":"Kantor Kelurahan Melong","office":"government"}},{"type":"node","id":9808567715,"lat":-6.9004535,"lon":107.5627943,"tags":{"name":"Kantor Kelurahan Cibeureum","office":"government"}},{"type":"node","id":9808591007,"lat":-6.9167234,"lon":107.634599,"tags":{"name":"DPRD Kota Bandung","office":"government"}},{"type":"node","id":9809033823,"lat":-6.9187445,"lon":107.6188319,"tags":{"name":"Kantor Kelurahan Kebon Pisang","office":"government"}},{"type":"node","id":9814318507,"lat":-6.9129377,"lon":107.6565229,"tags":{"amenity":"courthouse","government":"social_services","name":"Pengadilan Agama Bandung","office":"government"}},{"type":"node","id":9816134336,"lat":-6.9334262,"lon":107.6196741,"tags":{"name":"Ganesha Operation Buah Batu","office":"educational_institution"}},{"type":"node","id":9816181938,"lat":-6.900173,"lon":107.6429739,"tags":{"name":"BPJS Kesehatan Cabang Bandung","office":"health_insurance"}},{"type":"node","id":9816213120,"lat":-6.9408635,"lon":107.5815264,"tags":{"government":"tax","name":"KPP Pratama Bandung Tegallega","office":"government"}},{"type":"node","id":9819421564,"lat":-6.9160501,"lon":107.6336985,"tags":{"name":"Dinas Penataan Ruang Kota Bandung","office":"government","official_name":"Dinas Penataan Ruang Kota Bandung"}},{"type":"node","id":9819800007,"lat":-6.8996187,"lon":107.6286262,"tags":{"name":"Dapen Telkom Bandung","office":"insurance"}},{"type":"node","id":9827840505,"lat":-6.8976579,"lon":107.6133477,"tags":{"addr:city":"Bandung, Jawa Barat","addr:housenumber":"70","addr:postcode":"40132","addr:street":"Jalan Insinyur Haji Juanda","name":"AturKuliner","office":"it","opening_hours":"Mo-Fr 09:00-18:00","phone":"+6285171578866","website":"aturkuliner.id"}},{"type":"node","id":9957134520,"lat":-6.9733053,"lon":107.6268543,"tags":{"addr:city":"Bandung","addr:postcode":"40257","addr:street":"Jalan Radio Palasari","capacity":"1000","email":"primaseru@smktelkom-bdg.sch.id","grades":"10-12","image":"https://www.google.com/maps/uv?pb=!1s0x2e68e9abfaadb37f%3A0x7245c560108cfac8!3m1!7e115!4shttps%3A%2F%2Flh5.googleusercontent.com%2Fp%2FAF1QipMCk32qPSI9RkWPgQErY49_J5iuhE7_R9PHVoQi%3Dw355-h200-k-no!5ssmk%20telkom%20bandung%20-%20Google%20Search!15sCgIgAQ&i","internet_access":"wlan","name":"SMK Telkom Bandung","office":"educational_institution","operator":"SMK Telkom Bandung","operator:type":"private","phone":"+62 2288884848","website":"https://smktelkom-bdg.sch.id/"}},{"type":"node","id":10153255888,"lat":-6.9099154,"lon":107.6324182,"tags":{"addr:city":"Kota Bandung","addr:housenumber":"44","addr:postcode":"40121","addr:street":"Jalan WR. Supratman","name":"KESBANGPOL (BADAN KESATUAN BANGSA DAN POITIK) JAWA BARAT","office":"government","opening_hours":"Mo-Fr 09:00-17:00"}},{"type":"node","id":10153281379,"lat":-6.9114319,"lon":107.6332797,"tags":{"name":"AJB BUMIPUTERA 1912 KC SUPRATMAN","office":"insurance","opening_hours":"Mo-Fr 09:00-16:30"}},{"type":"node","id":10153293061,"lat":-6.9137008,"lon":107.6352468,"tags":{"addr:city":"Kota Bandung","addr:housenumber":"1","addr:postcode":"40271","addr:street":"Jalan Kebon Waru Utara","name":"OMBUDSMAN REPUBLIK INDONESIA PERWAKILAN JAWA BARAT","office":"government"}},{"type":"node","id":10153313206,"lat":-6.9108809,"lon":107.6330846,"tags":{"name":"KAKANWILL DEP. AGAMA PROVINSI JAWA BARAT II","office":"government"}},{"type":"node","id":10162132647,"lat":-6.8643165,"lon":107.5938619,"tags":{"addr:city":"Bandung","addr:housenumber":"207","addr:postcode":"40154","addr:street":"Jalan Dokter Setiabudi","name":"Program Studi Arsitektur Universitas Pendidikan Indonesia","office":"educational_institution"}},{"type":"node","id":10604268161,"lat":-6.8815775,"lon":107.582436,"tags":{"addr:housenumber":"Blok C2 No 37","description":"Internet Service Provider","name":"PT Power Telecom","office":"it","opening_hours":"Mo-Fr 08:00-17:00","phone":"+62 22-2006073","website":"https://www.powertel.co.id/"}},{"type":"node","id":10672630709,"lat":-6.8920131,"lon":107.6088117,"tags":{"name":"KMKL-ITB","office":"association"}},{"type":"node","id":10996519153,"lat":-6.9673191,"lon":107.6379007,"tags":{"brand":"Badan Penyelenggara Jaminan Sosial","name":"BPJS Ketenagakerjaan","office":"insurance"}},{"type":"node","id":11064377151,"lat":-6.8814987,"lon":107.5827471,"tags":{"addr:city":"Bandung, Jawa Barat","addr:housenumber":"Setrasari Mall Blok C2 No 23","addr:postcode":"40163","addr:street":"Jalan Terusan Sutami","name":"PT Griya Nutrisi","office":"yes","opening_hours":"Mo-Fr 09:00-17:00","phone":"+62 22 20277737","website":"https://www.griyanutrisi.com"}},{"type":"node","id":11066121405,"lat":-6.8813222,"lon":107.6252934,"tags":{"addr:housenumber":"2","addr:postcode":"40191","addr:street":"Jalan Akuntansi","name:hi":"PT. Cahaya Anugrah Firdaus","office":"company","opening_hours":"Su-Th 09:00-17:00","phone":"+62 2220456327"}},{"type":"node","id":11181717960,"lat":-6.9459341,"lon":107.5939993,"tags":{"level":"1","name":"Leuwipanjang Terminal Office","office":"yes"}},{"type":"node","id":11283260363,"lat":-6.9572967,"lon":107.6891089,"tags":{"addr:city":"Bandung","addr:housenumber":"MB 06","addr:postcode":"40295","addr:street":"Summarecon Bandung","name":"Hepytech","office":"it","opening_hours":"Mo-Fr 09:00-17:00","phone":"+6285175050668","website":"https://hepytech.com"}},{"type":"node","id":11283336995,"lat":-6.9572707,"lon":107.6891118,"tags":{"addr:city":"Bandung","addr:housenumber":"MB02","addr:postcode":"40295","addr:street":"Summarecon Bandung","name":"Hallo Mepy","office":"advertising_agency","opening_hours":"Mo-Fr 09:00-17:00","website":"https://hallomepy.id"}},{"type":"node","id":11309081607,"lat":-6.9143851,"lon":107.5943964,"tags":{"addr:city":"Bandung","addr:postcode":"40181","addr:street":"Paskal Hyper Square Blok D 26-27, Jl. Pasir Kaliki No.25, Ciroyom, Kec. Andir, Kota Bandung, Jawa Barat","name":"Moduit Digital Indonesia","office":"company","phone":"(021) 50202900","website":"https://moduit.id"}},{"type":"node","id":11335394918,"lat":-6.8757344,"lon":107.5625648,"tags":{"name":"Aula BMTI","office":"government"}},{"type":"node","id":11379409462,"lat":-6.9061238,"lon":107.6460515,"tags":{"addr:city":"Bandung","addr:housenumber":"8","addr:postcode":"40125","addr:street":"Jalan Mohammad Ento","name":"Webindoshop","office":"it","opening_hours":"Mo-Fr 09:00-17:00","website":"https://webindoshop.com"}},{"type":"node","id":11445907728,"lat":-6.8863128,"lon":107.6008882,"tags":{"name":"PT Bhumi Prasaja","office":"ngo"}},{"type":"node","id":11538797817,"lat":-6.9547591,"lon":107.6981378,"tags":{"addr:block":"GF","addr:city":"Bandung","addr:country":"ID","addr:place":"Summarecon Mall Bandung","addr:province":"Jawa Barat","addr:subdistrict":"Gedebage","addr:unit":"897","level":"0","name":"Summarecon Bandung Marketing Gallery","office":"company"}},{"type":"node","id":11576338297,"lat":-6.9454235,"lon":107.59431,"tags":{"government":"tax","name":"SAMSAT Drive Thru Leuwipanjang","office":"government"}},{"type":"node","id":11942615917,"lat":-6.9566157,"lon":107.6870188,"tags":{"office":"security"}},{"type":"node","id":11942615918,"lat":-6.9560286,"lon":107.686738,"tags":{"name":"Marketing Gallery Summarecon Bandung","office":"yes"}},{"type":"node","id":11968362246,"lat":-6.9739146,"lon":107.551177,"tags":{"addr:city":"Kab Bandung","addr:district":"Margaasih","addr:housenumber":"11","addr:neighbourhood":"RT 01/RW 03","addr:postcode":"40218","addr:province":"Jawa Barat","addr:street":"Jalan Mekar Raya","addr:subdistrict":"Kopo","ele":"20","level":"3","name":"PT Multi Areal Planing Indonesia (MAPID)","office":"company","website":"https://mapid.co.id/"}},{"type":"node","id":11992089040,"lat":-6.8612315,"lon":107.5917855,"tags":{"name":"Direktorat STI UPI","office":"yes"}},{"type":"node","id":12002785188,"lat":-6.8604603,"lon":107.5895002,"tags":{"alt_name":"Pos Satpam UPI","name":"Pos Penjagaan UPI","office":"security"}},{"type":"node","id":12002785193,"lat":-6.8601554,"lon":107.5944185,"tags":{"alt_name":"Pos Satpam UPI","name":"Pos Penjagaan UPI","office":"security","opening_hours":"24/7"}},{"type":"node","id":12002785203,"lat":-6.8633496,"lon":107.5945333,"tags":{"alt_name":"Pos Satpam UPI","name":"Pos Penjagaan UPI","office":"security","opening_hours":"24/7"}},{"type":"node","id":12064452935,"lat":-6.8978432,"lon":107.6359989,"tags":{"name":"Bagian Administrasi Itenas","office":"educational_institution"}},{"type":"node","id":12073182907,"lat":-6.8860578,"lon":107.5815957,"tags":{"addr:city":"Bandung","addr:housename":"Next Space","addr:postcode":"40164","addr:province":"Jawa Barat","addr:street":"Jalan Surya Sumantri","addr:unit":"76c","email":"digitalmarketing@betterwithus.id","name":"Next Space by UnionSPACE - Surya Sumantri, Bandung","office":"yes","opening_hours":"Mo-Fr 09:00-17:00","phone":"+628111085505","website":"https://betterwithus.id/"}},{"type":"node","id":12079590681,"lat":-6.9411279,"lon":107.6031462,"tags":{"addr:city":"Kota Bandung","addr:district":"Tegallega","addr:housename":"Komplek Ruko Jati Permai","addr:neighbourhood":"Pelindung Hewan","addr:postcode":"40243","addr:province":"Jawa Barat","addr:street":"Jl. Inhoftnak","addr:subdistrict":"Astana Anyar","addr:unit":"62","description":"Kami adalah GRAFIKA PARIWARA, entitas bisnis Badan Hukum PT GRAFIKA PARIWARA KUSUMAH, sebuah perusahaan yang bergerak di bidang industri Percetakan dan Periklanan.","email":"kantor@grafikapariwara.com","facebook":"https://facebook.com/grafikapariwara","instagram":"https://instagram.com/grafikapariwara","name":"Grafika Pariwara | PT. GRAFIKA PARIWARA KUSUMAH","office":"advertising_agency","opening_hours":"Mo-Fr 09:00-17:00","phone":"+62 821 1982 5032","product":"cutting sticker fabrication, branding sticker vehicle, gravure, advertising solution","website":"https://grafikapariwara.com"}},{"type":"node","id":12090457341,"lat":-6.9145468,"lon":107.601657,"tags":{"office":"security"}},{"type":"node","id":12097450304,"lat":-6.8819511,"lon":107.6112069,"tags":{"addr:city":"Bandung","addr:district":"Coblong","addr:housename":"Samaun Samadikun","addr:neighbourhood":"Cisitu","addr:postcode":"40135","addr:province":"Jawa Barat","addr:street":"Jalan Sangkuriang","addr:subdistrict":"Dago","addr:unit":"KST","name":"Badan Riset dan Inovasi Nasional (BRIN)","name:en":"National Research and Innovation Agency","office":"research","website":"https://brin.go.id/"}},{"type":"node","id":12223605480,"lat":-6.9592634,"lon":107.6439645,"tags":{"addr:city":"Kota Bandung","addr:district":"Bandung Kidul","addr:housenumber":"42D","addr:postcode":"40287","addr:province":"Jawa Barat","addr:street":"Jalan Logam","addr:village":"Kujangsari","air_conditioning":"yes","building:levels":"2","check_date":"2026-04-14","email":"bandung@taximaxim.com","height":"10","internet_access":"yes","name":"MAXIM - Kantor Mitra Bandung","office":"company","opening_hours":"Mo-Fr 09:00-18:00","operator":"TAXI MAXIM INDONESIA","short_name":"MAXIM Bandung","smoking":"outside","website":"https://id.taximaxim.com/en/7831-bandung/contacts/","wikidata":"Q109455511","wikipedia":"id:Taxi Maxim"}},{"type":"node","id":12237909862,"lat":-6.9738606,"lon":107.5511024,"tags":{"addr:city":"Kab Bandung","addr:district":"Margaasih","addr:housename":"Toyo Sensing","addr:housenumber":"11","addr:neighbourhood":"RT 01/RW 03","addr:postcode":"40218","addr:province":"Jawa Barat","addr:street":"Mekar Raya","addr:subdistrict":"Kopo","addr:unit":"4","name":"PT Toyo Sensing Indonesia","office":"company","opening_hours":"Mo-Fr 09:00-18:00","website":"https://toyosensing.com"}},{"type":"node","id":12238806960,"lat":-6.9144365,"lon":107.6076488,"tags":{"name":"Karya Imtaq","office":"travel_agent","opening_hours":"Mo-Sa 09:00-16:00; Su 07:00-09:00","wheelchair":"no"}},{"type":"node","id":12339301170,"lat":-6.9567678,"lon":107.6892209,"tags":{"office":"security"}},{"type":"node","id":12477812057,"lat":-6.9433079,"lon":107.6499467,"tags":{"name":"Penerbit Erlangga Cabang Bandung","office":"yes"}},{"type":"node","id":12495535954,"lat":-6.9533803,"lon":107.6972795,"tags":{"name":"Agate","office":"yes"}},{"type":"node","id":12673456092,"lat":-6.911577,"lon":107.6549323,"tags":{"addr:city":"Bandung","addr:district":"Antapani","addr:housenumber":"12","addr:postcode":"40291","addr:province":"Jawa Barat","addr:street":"Jalan Pamanukan","addr:subdistrict":"Antapani Kulon","name":"Optibis","office":"company","phone":"+62-877-7257-7020","website":"https://optibis.id"}},{"type":"node","id":12965631817,"lat":-6.8930292,"lon":107.6456779,"tags":{"office":"security"}},{"type":"node","id":13016987406,"lat":-6.9734431,"lon":107.5546779,"tags":{"addr:city":"Bandung","addr:housenumber":"37","addr:neighbourhood":"Bumi Asri","addr:street":"Jalan Tengah","addr:subdistrict":"Mekarrrahayu","name":"Penerbit Yrama Widya","office":"publisher","website":"https://yrama-widya.co.id/"}},{"type":"node","id":13042256338,"lat":-6.851185,"lon":107.5824771,"tags":{"name":"Pos Satpam Wing III Bawah","office":"security"}},{"type":"node","id":13058908854,"lat":-6.8880665,"lon":107.6146035,"tags":{"name":"Sriwijaya","office":"travel_agent"}},{"type":"node","id":13058935499,"lat":-6.8899081,"lon":107.6154819,"tags":{"name:signed":"no","office":"security"}},{"type":"node","id":13058936813,"lat":-6.8896087,"lon":107.6155207,"tags":{"name":"IniLima Sekretariat","office":"association"}},{"type":"node","id":13058945318,"lat":-6.889903,"lon":107.6146317,"tags":{"office":"security"}},{"type":"node","id":13058962988,"lat":-6.8875527,"lon":107.6150789,"tags":{"name":"Pos Satpam RT 01 RW 11","office":"security"}},{"type":"node","id":13072174014,"lat":-6.892301,"lon":107.6082542,"tags":{"office":"security"}},{"type":"node","id":13086303852,"lat":-6.9373933,"lon":107.6228829,"tags":{"addr:city":"Bandung","addr:country":"ID","addr:housenumber":"142B","addr:province":"Jawa Barat","addr:street":"Jalan Buah Batu","name":"Marvel.ous","office":"travel_agent","opening_hours":"Mo-Su 10:00-22:00"}},{"type":"node","id":13140322995,"lat":-6.95856,"lon":107.6946614,"tags":{"addr:housenumber":"106;108","addr:place":"Ruby Commercial","name":"English 1","office":"educational_institution","opening_hours":"Mo-Fr 10:00-21:00; Sa 09:00-17:00"}},{"type":"node","id":13140322997,"lat":-6.9582619,"lon":107.6946868,"tags":{"name":"Adhiya","office":"travel_agent","opening_hours":"Mo-Su 09:00-21:00"}},{"type":"node","id":13167212050,"lat":-6.9114815,"lon":107.6096047,"tags":{"addr:city":"Kota Bandung","addr:housename":"BKPSDM Kota Bandung","addr:housenumber":"2","addr:postcode":"40117","addr:province":"Jawa Barat","addr:street":"Jalan Wastukencana","name":"Badan Kepegawaian dan Pengembangan Sumber Daya Manusia Kota Bandung","office":"government","opening_hours":"Mo-Fr 08:00-16:00","website":"bkpsdm.bandung.go.id"}},{"type":"node","id":13277319429,"lat":-6.9527905,"lon":107.6032447,"tags":{"name":"Yayasan Harapan Kasih Bandung","name:zh":"萬隆客屬聯誼會","office":"ngo"}},{"type":"node","id":13334575527,"lat":-6.8968872,"lon":107.6196694,"tags":{"name":"Labtek Indie","office":"research"}},{"type":"node","id":13334663512,"lat":-6.9337578,"lon":107.6266223,"tags":{"name":"DPD Golkar Jawa Barat","office":"political_party"}},{"type":"node","id":13334663513,"lat":-6.9335979,"lon":107.6260985,"tags":{"name":"DPD Golkar Kota Bandung","office":"political_party"}},{"type":"node","id":13343337357,"lat":-6.9112059,"lon":107.6093175,"tags":{"government":"transportation","name":"ATCS Kota Bandung","office":"government"}},{"type":"node","id":13344062059,"lat":-6.8899673,"lon":107.6285949,"tags":{"name":"Seluas Tanah Merah","office":"company"}},{"type":"node","id":13595525464,"lat":-6.8969575,"lon":107.6132177,"tags":{"name":"Astra","office":"insurance"}},{"type":"node","id":13598241268,"lat":-6.8927984,"lon":107.6127833,"tags":{"name":"Gerakan Mahasiswa Kristen Indonesia","office":"association"}},{"type":"node","id":13605823638,"lat":-6.8867631,"lon":107.6139854,"tags":{"name":"Otoritas Jasa Keuangan","office":"yes"}},{"type":"node","id":13608915746,"lat":-6.9595196,"lon":107.6993619,"tags":{"addr:housenumber":"76;78","addr:place":"Topaz Commercial","name":"FM Global","office":"logistics"}},{"type":"node","id":13613996812,"lat":-6.8940166,"lon":107.6180565,"tags":{"office":"security"}},{"type":"node","id":13619294699,"lat":-6.8995708,"lon":107.6202382,"tags":{"addr:city":"Bandung","addr:district":"Cibenying Kaler","addr:housenumber":"57","addr:postcode":"40122","addr:province":"Jawa Barat","addr:street":"Jalan Diponegoro","addr:subdistrict":"Cihaur Geulis","government":"ministry","name":"Gedung Lama PVMBG","office":"government"}},{"type":"node","id":13619294700,"lat":-6.8997639,"lon":107.6207144,"tags":{"addr:city":"Bandung","addr:district":"Cibenying Kaler","addr:housenumber":"57","addr:postcode":"40122","addr:province":"Jawa Barat","addr:street":"Jalan Diponegoro","addr:subdistrict":"Cihaur Geulis","government":"ministry","name":"Pusat Vulkanologi dan Mitigasi Bencana Geologi","office":"government"}},{"type":"node","id":13620482361,"lat":-6.9313309,"lon":107.635258,"tags":{"name":"Badan Pengawas Pemilu","office":"government"}},{"type":"node","id":13620539819,"lat":-6.9317004,"lon":107.6350949,"tags":{"name":"Yayasan Saung Kadeudeuh","office":"foundation"}},{"type":"node","id":13620574581,"lat":-6.932019,"lon":107.6350192,"tags":{"name":"Rumah Zakat","office":"ngo"}},{"type":"node","id":13624949993,"lat":-6.8892715,"lon":107.6137247,"tags":{"name":"Graha Equity Life","office":"insurance"}},{"type":"node","id":13630128347,"lat":-6.9541094,"lon":107.6082796,"tags":{"name":"RayWhite","office":"property_management"}},{"type":"node","id":13647733725,"lat":-6.9046416,"lon":107.6104893,"tags":{"name":"Indolife","office":"insurance"}},{"type":"node","id":13647834335,"lat":-6.9021423,"lon":107.6120539,"tags":{"name":"Mirae Asset Sekuritas","office":"yes"}},{"type":"node","id":13650960720,"lat":-6.9426438,"lon":107.691415,"tags":{"office":"security"}},{"type":"node","id":13650979512,"lat":-6.9430468,"lon":107.6935926,"tags":{"office":"security"}},{"type":"node","id":13655203184,"lat":-6.9145064,"lon":107.6013742,"tags":{"name":"Pengawas Urusan Kereta Bandung","office":"yes"}},{"type":"node","id":13727782545,"lat":-6.897746,"lon":107.5574051,"tags":{"addr:city":"Cimahi","addr:housenumber":"51","addr:postcode":"40535","addr:street":"Jalan Mahar Martanegara","contact:instagram":"asiantex.id","name":"Asiantex","office":"company"}},{"type":"node","id":13748217801,"lat":-6.9043053,"lon":107.6670917,"tags":{"name":"Hadi Motor","office":"company"}},{"type":"node","id":13752350920,"lat":-6.8797122,"lon":107.616096,"tags":{"name":"LAPI ITB","office":"yes"}},{"type":"node","id":13752422100,"lat":-6.8782685,"lon":107.6144491,"tags":{"name":"Pos Keamanan Dago Asri II","office":"security"}},{"type":"node","id":13781587216,"lat":-6.899745,"lon":107.6530399,"tags":{"name":"Sinar Jaya Ruco Surapati","office":"company","phone":"+622281119175248"}},{"type":"node","id":13801672608,"lat":-6.9162458,"lon":107.6304556,"tags":{"name":"Dading Law Firm & Partners","office":"lawyer"}},{"type":"node","id":13811676880,"lat":-6.896631,"lon":107.5906901,"tags":{"name":"Sinar Jaya Pasteur","office":"company"}},{"type":"node","id":13932645988,"lat":-6.9130515,"lon":107.586148,"tags":{"admin_level":"7","government":"administrative","name":"Kantor Lurah Ciroyom","office":"government"}},{"type":"node","id":13932645989,"lat":-6.9082755,"lon":107.5741493,"tags":{"admin_level":"6","government":"administrative","name":"Kantor Camat Andir","office":"government"}},{"type":"node","id":13932645990,"lat":-6.9319945,"lon":107.5999928,"tags":{"admin_level":"6","government":"administrative","name":"Kantor Camat Astana Anyar","office":"government"}},{"type":"node","id":13932645991,"lat":-6.9041504,"lon":107.6645032,"tags":{"admin_level":"6","government":"administrative","name":"Kantor Camat Antapani","office":"government"}},{"type":"node","id":13932645992,"lat":-6.917618,"lon":107.6851248,"tags":{"admin_level":"6","government":"administrative","name":"Kantor Camat Arcamanik","office":"government"}},{"type":"node","id":13937602062,"lat":-6.8980347,"lon":107.5630666,"tags":{"admin_level":"7","government":"administrative","name":"Kantor Lurah Campaka","office":"government"}},{"type":"node","id":13937602063,"lat":-6.912539,"lon":107.5806453,"tags":{"admin_level":"7","government":"administrative","name":"Kantor Lurah Dungus Cariang","office":"government"}},{"type":"node","id":13937602064,"lat":-6.9160977,"lon":107.5764812,"tags":{"admin_level":"7","government":"administrative","name":"Kantor Lurah Garuda","office":"government"}},{"type":"node","id":13937602065,"lat":-6.9188455,"lon":107.6012397,"tags":{"admin_level":"7","government":"administrative","name":"Kantor Lurah Kebon Jeruk","office":"government"}},{"type":"node","id":13937602066,"lat":-6.9074491,"lon":107.5734796,"tags":{"admin_level":"7","government":"administrative","name":"Kantor Lurah Maleber","office":"government"}},{"type":"node","id":13937648170,"lat":-6.920853,"lon":107.5931565,"tags":{"admin_level":"7","government":"administrative","name":"Kantor Lurah Cibadak","office":"government"}},{"type":"node","id":13937648171,"lat":-6.9244189,"lon":107.6017618,"tags":{"admin_level":"7","government":"administrative","name":"Kantor Lurah Karanganyar","office":"government"}},{"type":"node","id":13937648172,"lat":-6.9506827,"lon":107.6077162,"tags":{"admin_level":"7","government":"administrative","name":"Kantor Lurah Karasak","office":"government"}},{"type":"node","id":13937648173,"lat":-6.9274882,"lon":107.6003787,"tags":{"admin_level":"7","government":"administrative","name":"Kantor Lurah Nyengseret","office":"government"}},{"type":"node","id":13937648174,"lat":-6.9324293,"lon":107.5997839,"tags":{"admin_level":"7","government":"administrative","name":"Kantor Lurah Panjunan","office":"government"}},{"type":"node","id":13937648175,"lat":-6.9395509,"lon":107.6044307,"tags":{"admin_level":"7","government":"administrative","name":"Kantor Lurah Pelindung Hewan","office":"government"}},{"type":"node","id":13937648176,"lat":-6.9176189,"lon":107.6606417,"tags":{"admin_level":"7","government":"administrative","name":"Kantor Lurah Antapani Kidul","office":"government"}},{"type":"node","id":13937648177,"lat":-6.9147431,"lon":107.6619168,"tags":{"admin_level":"7","government":"administrative","name":"Kantor Lurah Antapani Tengah","office":"government"}},{"type":"node","id":13937648178,"lat":-6.9134651,"lon":107.6658717,"tags":{"admin_level":"7","government":"administrative","name":"Kantor Lurah Antapani Wetan","office":"government"}},{"type":"node","id":13937648179,"lat":-6.9142078,"lon":107.6843476,"tags":{"admin_level":"7","government":"administrative","name":"Kantor Lurah Cisaranten Bina Harapan","office":"government"}},{"type":"node","id":13937648180,"lat":-6.9318311,"lon":107.672456,"tags":{"admin_level":"7","government":"administrative","name":"Kantor Lurah Cisaranten Endah","office":"government"}},{"type":"node","id":13937648181,"lat":-6.9245484,"lon":107.683511,"tags":{"admin_level":"7","government":"administrative","name":"Kantor Lurah Cisaranten Kulon","office":"government"}},{"type":"node","id":13937648182,"lat":-6.909886,"lon":107.6767807,"tags":{"admin_level":"7","government":"administrative","name":"Kantor Lurah Sukamiskin","office":"government"}},{"type":"way","id":26729382,"center":{"lat":-6.8982177,"lon":107.5822506},"nodes":[293179605,2968359962,2968359960,2968359963,293179606,293179607,2968359949,2968359957,2968359956,2968359959,2968359958,293179608,2968359955,2968359953,2968359952,2968359950,293179609,293179610,2968359941,2968359938,12969504931,12969504932,12969504935,12969504936,12969504934,12969504933,293179613,293179615,12969504928,12969504930,12969504929,293179617,293179618,293179619,293179605],"tags":{"architect":"Adhi Moersid;Atelier 6","building":"yes","building:architecture":"brutalist","building:levels":"10","height":"35.5","name":"PT Dirgantara Indonesia (Kantor Pusat)","name:en":"Indonesian Aerospace (head office)","office":"company","website":"https://www.indonesian-aerospace.com/","wikidata":"Q49252","wikipedia":"en:Indonesian Aerospace","year_of_construction":"1981-07..1985-06"}},{"type":"way","id":119434288,"center":{"lat":-6.8949523,"lon":107.6125281},"nodes":[1342089394,1342089395,1342089393,1342089391,1342089394],"tags":{"addr:city":"Bandung","addr:street":"Jalan Ir. H. Juanda","building":"yes","name":"evermos","office":"yes"}},{"type":"way","id":119444370,"center":{"lat":-6.8966338,"lon":107.6132682},"nodes":[1342159595,1342159578,1342159584,1342159589,1342159595],"tags":{"addr:housenumber":"84","addr:street":"Jalan Ir. H. Djuanda","building":"yes","building:levels":"1","building:use":"commercial","name":"Eduplex Djuanda Bandung","office":"educational_institution"}},{"type":"way","id":119451401,"center":{"lat":-6.8814121,"lon":107.6144917},"nodes":[1342223882,1342223881,1342223883,1342223884,1342223882],"tags":{"addr:city":"Bandung","addr:postcode":"40135","addr:street":"Jl. Ir. H. Juanda No.193, Dago, Kecamatan Coblong, Kota Bandung, Jawa Barat 40135","building":"yes","building:levels":"4","building:roof":"tin","building:structure":"reinforced_masonry","building:use":"government","building:walls":"brick","name":"Pusat Penelitian dan Pengembangan Sumber Daya Air Pusair","office":"government"}},{"type":"way","id":119451616,"center":{"lat":-6.8827042,"lon":107.6142956},"nodes":[1342225161,1342225162,1342225164,1342225166,1342225169,1342225184,1342225148,1342225153,1342225161],"tags":{"addr:city":"Bandung","addr:postcode":"40135","addr:street":"Jl. Ir. H. Juanda No.193, Dago, Kecamatan Coblong, Kota Bandung, Jawa Barat 40135","building":"yes","building:levels":"4","building:roof":"tin","building:structure":"reinforced_masonry","building:use":"government","building:walls":"brick","name":"Pusat Penelitian dan Pengembangan Sumber Daya Air Pusair","office":"research"}},{"type":"way","id":119452395,"center":{"lat":-6.8763594,"lon":107.6185596},"nodes":[1342231421,1342231427,1342231415,1342231429,1342231419,1342231431,1342231426,1342231412,1342231421],"tags":{"addr:housenumber":"358","addr:street":"Jalan Insinyur Haji Juanda","building":"yes","building:levels":"3","building:roof":"tile","building:structure":"reinforced_masonry","building:use":"government","building:walls":"brick","name":"Dinas Peternakan Jawa Barat","office":"government"}},{"type":"way","id":119454957,"center":{"lat":-6.8981967,"lon":107.6195053},"nodes":[1342256258,1956911052,1342256263,1956911055,1342256259,1342256265,1342256261,1342256264,1342256260,1342256257,1342256258],"tags":{"building":"yes","building:levels":"8","building:roof":"concrete","building:structure":"reinforced_masonry","building:use":"multipurpose","building:walls":"brick","name":"Graha Merah Putih","name:id":"PT Telekomunikasi Indonesia","office":"telecommunication"}},{"type":"way","id":119762183,"center":{"lat":-6.9020661,"lon":107.6198184},"nodes":[1344570342,1344570402,1344570417,1344570344,1344570379,1344570406,1344570363,1344570397,1344570361,1344570396,1344570340,1344570359,5293711397,5293711398,5293711399,5293711402,5293711401,5293711400,1344570386,1344570355,1344570381,1344570415,5293711403,1344570342],"tags":{"building":"yes","building:levels":"2","building:roof":"tile","building:structure":"reinforced_masonry","building:walls":"brick","name":"Kantor Pusat PT Pos Indonesia Bandung","office":"company"}},{"type":"way","id":119762428,"center":{"lat":-6.9201203,"lon":107.6092085},"nodes":[1344578322,1344578312,4213227936,4213227937,4213227934,4213227935,1344578324,1344578311,12791703967,1344578322],"tags":{"building":"yes","building:levels":"2","building:roof":"concrete","building:structure":"reinforced_masonry","building:use":"government","building:walls":"brick","name":"Perusahaan Listrik Negara","office":"company"}},{"type":"way","id":120331565,"center":{"lat":-6.8886107,"lon":107.6138778},"nodes":[1349477462,1349477453,1349477438,1349477447,1349477462],"tags":{"addr:housenumber":"138","addr:street":"Jalan Ir. H. Djuanda","building":"yes","building:levels":"1","building:roof":"tile","building:structure":"reinforced_masonry","building:use":"commercial","building:walls":"brick","name":"evermos","office":"yes"}},{"type":"way","id":120331567,"center":{"lat":-6.8925552,"lon":107.6135454},"nodes":[1349477433,1349477457,1349477449,1349477451,1349477433],"tags":{"building":"yes","building:levels":"1","building:roof":"asbestos","building:structure":"reinforced_masonry","building:use":"commercial","building:walls":"brick","name":"Innovation Factory","office":"yes"}},{"type":"way","id":120624435,"center":{"lat":-6.8977927,"lon":107.6361954},"nodes":[1352122735,13621747121,13621747120,1352122694,1352122690,1352122732,1352122715,1352122751,1352122723,13621747119,1352122735],"tags":{"building":"yes","building:levels":"2","building:roof":"asbestos","building:structure":"reinforced_masonry","building:use":"education","building:walls":"brick","name":"Rektorat Itenas","office":"educational_institution"}},{"type":"way","id":124051793,"center":{"lat":-6.8837407,"lon":107.6204645},"nodes":[1381645018,9676770024,9676770025,1381645273,1381645018],"tags":{"addr:city":"Bandung","addr:district":"Coblong","addr:housenumber":"8","addr:postcode":"40134","addr:province":"Jawa Barat","addr:street":"Jalan Tubagus Ismail XII","addr:subdistrict":"Sekeloa","building":"yes","building:levels":"2","building:roof":"flat","building:structure":"steel_frame","building:use":"office","building:walls":"concrete","name":"Smart GPS Bandung","office":"company","opening_hours":"Mo-Sa 09:00-17:00","phone":"+62 811 6687272 - 6697272","website":"https://smartgps.co.id"}},{"type":"way","id":124051868,"center":{"lat":-6.8838484,"lon":107.6205453},"nodes":[1381645412,1381645164,1381645202,1381645033,1381645118,1381645225,9676770026,9676770027,1381645412],"tags":{"addr:city":"Bandung","addr:district":"Coblong","addr:housenumber":"8","addr:postcode":"40134","addr:province":"Jawa Barat","addr:street":"Jalan Tubagus Ismail XII","addr:subdistrict":"Sekeloa","building":"yes","building:levels":"2","building:roof":"flat","building:structure":"steel_frame","building:use":"office","building:walls":"concrete","name":"Opticore Technology","office":"it","opening_hours":"24/7","website":"https://opticore.tech"}},{"type":"way","id":125174061,"center":{"lat":-6.8999153,"lon":107.6229867},"nodes":[1390950841,1390950842,4169087430,1390950836,1390950974,1390950841],"tags":{"building":"yes","name":"Kantor Wilayah Bea Cukai Jawa Barat","office":"government"}},{"type":"way","id":125177139,"center":{"lat":-6.9010021,"lon":107.6151227},"nodes":[1390980891,1390980602,1390980586,1390980893,1390980891],"tags":{"access:roof":"no","addr:full":"Jl. Diponegoro Bandung","building":"civic","building:levels":"2","building:roof":"tile","building:structure":"reinforced_masonry","building:walls":"brick","capacity:persons":"500","office":"government"}},{"type":"way","id":153883983,"center":{"lat":-6.9151251,"lon":107.60203},"nodes":[1665109263,1665109358,1665109381,1665109328,1665109341,1665109315,1665109298,1665109275,1665109263],"tags":{"addr:city":"Bandung","addr:housenumber":"1","addr:street":"Jalan Stasiun Selatan","building":"yes","check_date":"2025-05-23","name":"Kantor KAI Daop 2 Bandung","office":"company"}},{"type":"way","id":154066174,"center":{"lat":-6.8934793,"lon":107.5805021},"nodes":[1666608375,1666608406,1666608396,1666608449,1666608466,1666608494,1666608506,1666608545,1666608554,1666608490,1666608427,1666608384,1666608375],"tags":{"building":"yes","name":"Pusat Penelitian dan Pengembangan Geologi Kelautan","office":"government"}},{"type":"way","id":154217983,"center":{"lat":-6.9344455,"lon":107.6629621},"nodes":[1667839690,1901853861,1901853859,1667839579,1901853860,1901853862,1667839760,5387132129,5387132128,1667840133,1901853863,1667839690],"tags":{"addr:city":"Bandung","addr:postcode":"40286","addr:street":"Jalan Kawaluyaan Indah II","amenity":"library","building":"office","government":"public_service","name":"Dinas Perpustakaan dan Kearsipan Daerah","office":"government","official_name":"Dinas Perpustakaan dan Kearsipan Provinsi Jawa Barat","opening_hours":"Mo-Fr 08:00-16:00","short_name":"Dispusipda Jabar","website":"https://dispusipda.jabarprov.go.id/"}},{"type":"way","id":154218290,"center":{"lat":-6.9338575,"lon":107.6621458},"nodes":[1667839486,1667839520,1667839639,1667839565,1856650989,1856650987,1856650983,1856650985,1667839486],"tags":{"building":"office","government":"administrative","name":"Dinas Pemukiman dan Perumahan","office":"government","official_name":"Dinas Pemukiman dan Perumahan Provinsi Jawa Barat","opening_hours":"Mo-Fr 08:00-16:00","short_name":"Disperkin Jabar"}},{"type":"way","id":174033085,"center":{"lat":-6.9424301,"lon":107.6477121},"nodes":[1847833417,13476587212,1847833425,1847833422,1847833417],"tags":{"access:roof":"no","addr:city":"bandung","addr:full":"Jalan Sukarno-Hatta no 629 Bandung","addr:housenumber":"629","addr:postcode":"40286","addr:street":"Jalan Soekarno-Hatta","admin_level":"4","building":"yes","building:levels":"2","building:roof":"tile","building:structure":"reinforced_masonry","building:walls":"brick","capacity:persons":"200","description":"Gedung Alpha : Lantai Dasar Gudang Logistik BPBD Jabar Lantai Atas Bidang Kedaruratan dan Logistik - Ruang Kepala Bidang - Ruang Kasie Kedaruratan - Ruang Kasie Logistik - Ruang Staff - Ruang Olah Raga - Ruang Dharmawanita - Ruang Data Informasi PB","name":"BPBD Prov Jabar Gedung A","office":"government","opening_hours":"24/7","operator":"yc1ohe","phone":"+62 22 7313 267","website":"http://bpbd.jabarprov.go.id/"}},{"type":"way","id":174033086,"center":{"lat":-6.9419887,"lon":107.6477032},"nodes":[1847833413,1847833414,1847833416,5427977570,5427977567,5427977568,5427977569,1847833415,1847833413],"tags":{"access:roof":"yes","addr:city":"bandung","addr:full":"Jl. Sukarno Hatta No. 629 Bandung","addr:housename":"by pass","addr:housenumber":"629","addr:postcode":"40286","addr:street":"Jl.soekarno hatta","admin_level":"4","building":"yes","building:levels":"2","building:roof":"tile","building:structure":"reinforced_masonry","building:walls":"brick","capacity:persons":"500","ele":"15","government":"public_service","name":"BPBD Prov Jabar Gedung B","office":"government","opening_hours":"24/7","operator":"yc1ohe","website":"http://bpbd.jabarprov.go.id/"}},{"type":"way","id":174042246,"center":{"lat":-6.9026108,"lon":107.6173914},"nodes":[1847944873,1847944893,13713989356,13713989359,1798109372,1798109366,1847944884,1847944882,1847944873],"tags":{"building":"office","government":"administrative","name":"Sekretariat Daerah Jawa Barat","office":"government"}},{"type":"way","id":174042247,"center":{"lat":-6.8997982,"lon":107.617078},"nodes":[1847944714,1847944715,1847944740,1847944739,1847944714],"tags":{"access:roof":"no","addr:full":"Jl. Surapati no. 4 Bandung","admin_level":"4","building":"civic","building:levels":"3","building:roof":"tile","building:structure":"reinforced_masonry","building:walls":"brick","capacity:persons":"200","name":"Inspektorat Provinsi Jawa Barat","office":"government"}},{"type":"way","id":174042249,"center":{"lat":-6.9005764,"lon":107.6229328},"nodes":[1847944747,1847944752,1847944751,1847944763,1847944764,1847944769,1847944770,1847944766,1847944767,1847944754,1847944761,1847944749,1847944748,1847944745,1847944744,1847944746,1847944747],"tags":{"access:roof":"yes","addr:full":"Jl. Diponegoro Bandung","building":"civic","building:levels":"3","building:roof":"tile","building:structure":"reinforced_masonry","building:walls":"brick","capacity:persons":"200","description":"Kementrian Keuangan","name":"Kantor Kas Negara Bandung","office":"government","wikidata":"Q109001170"}},{"type":"way","id":174042250,"center":{"lat":-6.900005,"lon":107.6160593},"nodes":[1847944738,1847944733,1847944737,1847944741,1847944742,1847944743,1847944738],"tags":{"access:roof":"yes","addr:full":"Jl. Aryajiang Bandung","building":"civic","building:levels":"2","building:roof":"concrete","building:structure":"reinforced_masonry","building:walls":"brick","capacity:persons":"60","name":"Lanal TNI AL Bandung","office":"government"}},{"type":"way","id":174044215,"center":{"lat":-6.9031519,"lon":107.6208323},"nodes":[1847980136,9738630929,9738630930,1847980121,1847980120,1847980118,1847980119,9738630928,9738630927,1847980116,1847980117,1847980134,1847980132,1847980138,1847980136],"tags":{"access:roof":"no","addr:city":"Bandung","addr:full":"Jl. Hayam Wuruk No. 34-38, Citarum, Bandung Wetan","amenity":"college","building":"college","building:condition":"good","building:levels":"4","building:roof":"tile","building:structure":"reinforced_masonry","building:walls":"brick","capacity:persons":"250","name":"STIA Lembaga Administrasi Negara","office":"government","operator:type":"government","source":"S2City_POI_2022","wheelchair":"limited"}},{"type":"way","id":179745251,"center":{"lat":-6.9336182,"lon":107.6629587},"nodes":[1901853857,1901853858,1901853855,1901853856,1901853852,1901853851,1901853848,1901853847,1901853850,1901853849,1901853853,1901853854,1901853857],"tags":{"addr:city":"Bandung","addr:postcode":"40286","addr:street":"Jalan Kawaluyaan Indah Raya","building":"office","government":"tax","name":"SAMSAT Kawaluyaan","office":"government"}},{"type":"way","id":183170420,"center":{"lat":-6.9357843,"lon":107.6113327},"nodes":[1935331278,1935331268,1935331280,1935331282,1935331278],"tags":{"admin_level":"7","building":"yes","name":"Kantor Lurah Ciateul","office":"government"}},{"type":"way","id":183513819,"center":{"lat":-6.8713928,"lon":107.6185119},"nodes":[1939029946,1939029949,1939029964,1939029954,1939029946],"tags":{"access":"no","addr:city":"Bandung","addr:full":"Jalan Bukit Dago Selatan","leisure":"park","name":"Taman PDAM","office":"government","opening_hours":"24/7","operator":"PDAM","source":"S2City_POI_2022","wheelchair":"no"}},{"type":"way","id":185930421,"center":{"lat":-6.9612019,"lon":107.6512438},"nodes":[1966161382,1966161389,1966161390,1966161383,1966161382],"tags":{"access:roof":"no","addr:full":"Jl. Kencanawangi IV","admin_level":"9","building":"yes","building:levels":"1","building:roof":"tile","building:structure":"reinforced_masonry","building:walls":"brick","capacity:persons":"70","ele":"8","name":"Kantor RW 09","office":"government"}},{"type":"way","id":185937170,"center":{"lat":-6.9447997,"lon":107.6463479},"nodes":[1966230513,1966230491,1966230521,1966230520,1966230513],"tags":{"access:roof":"yes","addr:full":"Jl. Sukarno Hatta","admin_level":"4","alt_name":"Disnaker;Disnakertrans","building":"yes","building:levels":"3","building:roof":"tile","building:structure":"reinforced_masonry","building:walls":"brick","capacity:persons":"500","ele":"15","government":"social_services","name":"Dinas Tenaga Kerja dan Transmigrasi Jabar","office":"government","official_name":"Dinas Tenaga Kerja dan Transmigrasi Provinsi Jawa Barat","opening_hours":"Mo-Fr 09:00-15:00","short_name":"Disnakertrans Jabar"}},{"type":"way","id":185937171,"center":{"lat":-6.9435904,"lon":107.64931},"nodes":[1966230476,1966230479,1966230480,1966230477,1966230476],"tags":{"building":"yes","name":"Smartfren","office":"telecommunication"}},{"type":"way","id":186989908,"center":{"lat":-6.8930387,"lon":107.6407998},"nodes":[1977500147,1977500150,1977500149,1977500152,1977500154,1977500156,1977500168,1977500160,1977500147],"tags":{"addr:city":"Bandung","addr:housenumber":"276 A","addr:street":"Jln. Cikutra","amenity":"public_building","building":"yes","fax":"+62 22 7216914","government":"education","internet_access":"wlan","internet_access:fee":"no","name":"Kwartir Daerah Gerakan Pramuka Jawa Barat","office":"government","phone":"+62 22 7216915","smoking":"separated","wheelchair":"yes"}},{"type":"way","id":193245306,"center":{"lat":-6.8734962,"lon":107.5994946},"nodes":[2037649918,2037649921,2037649922,2037649917,2037649916,2037649920,2037649918],"tags":{"admin_level":"6","building":"yes","name":"Kantor Camat Cidadap","office":"government"}},{"type":"way","id":299080062,"center":{"lat":-6.8953148,"lon":107.6179374},"nodes":[3030249490,3030249491,3030249492,3230898591,3230898594,3030249495,3030249490],"tags":{"addr:city":"Bandung, Jawa Barat","addr:housenumber":"1","addr:street":"Japati","name":"Kopegtel Kantor Perusahaan - Unit Foto Copy & Percetakan","office":"company"}},{"type":"way","id":299081364,"center":{"lat":-6.895953,"lon":107.6103306},"nodes":[3030229406,3373959226,3830215426,3030229408,3830215425,3830215424,3830215423,5281947129,5281947130,3830215422,3030229406],"tags":{"addr:city":"Bandung, Jawa Barat","addr:street":"Gelap Nyawang","name":"PDAM Tirtawening Kota Bandung","office":"company"}},{"type":"way","id":299081748,"center":{"lat":-6.8972577,"lon":107.609989},"nodes":[3030287487,3030287488,3030287489,3030287490,3030287491,3030287487],"tags":{"addr:city":"Bandung, Jawa Barat","addr:street":"Taman Sari","name":"Kodim 06181 Bs Koramil 12","office":"government"}},{"type":"way","id":299082004,"center":{"lat":-6.8974238,"lon":107.6117268},"nodes":[3030287518,3030287519,3030287520,3030287521,3030287522,3030287523,3030287518],"tags":{"name":"S2DLS Center","office":"company"}},{"type":"way","id":299099511,"center":{"lat":-6.8989553,"lon":107.6105799},"nodes":[3030404118,3030404119,3030404120,3030404121,3030404122,3030404118],"tags":{"addr:city":"Bandung, Jawa Barat","building":"office","name":"Kantor Satuan Penjaminan Mutu","office":"educational_institution"}},{"type":"way","id":299102068,"center":{"lat":-6.8993201,"lon":107.6097865},"nodes":[3030392656,3030392657,3030392658,3030392659,3030392656],"tags":{"addr:city":"Bandung, Jawa Barat","name":"Rekotrat ITB","office":"government"}},{"type":"way","id":305097288,"center":{"lat":-6.8915239,"lon":107.6014032},"nodes":[3096765599,3096765600,3096765601,3096765602,3096765599],"tags":{"addr:city":"Bandung","addr:housenumber":"11","addr:street":"Jalan Sampurna","building":"office","name":"PT Sangkuriang Internasional","office":"company"}},{"type":"way","id":318491106,"center":{"lat":-6.9078309,"lon":107.6853422},"nodes":[3248971165,3248971166,3248971167,3248971168,3248971165],"tags":{"addr:city":"Kota Bandung","addr:housenumber":"264","addr:postcode":"40294","addr:street":"Jalan A.H Nasution","building":"yes","name":"Gedung Sekretariat","office":"government","opening_hours":"Mo-Fr 08:00-16:30","phone":"+62 22 7802251","website":"http://www.pusjatan.pu.go.id"}},{"type":"way","id":318494199,"center":{"lat":-6.9080436,"lon":107.6858882},"nodes":[3248999504,3248999505,3249003464,3248999506,3248999507,3248999504],"tags":{"addr:city":"Kota Bandung","addr:housenumber":"264","addr:postcode":"40294","addr:street":"Jalan A.H Nasution","building":"yes","name":"Gedung Utama","office":"government","opening_hours":"Mo-Fr 08:00-17:00","phone":"+62 22 7802251","website":"http://www.pusjatan.pu.go.id"}},{"type":"way","id":318494200,"center":{"lat":-6.9083337,"lon":107.6850572},"nodes":[3248999508,3248999509,3248999510,3248999511,3248999512,3248999513,3248999514,3248999515,3248999516,3248999517,3248999518,3248999519,3248999508],"tags":{"addr:city":"Kota Bandung","addr:housenumber":"264","addr:postcode":"40294","addr:street":"Jalan A.H Nasution","building":"yes","name":"Gedung Pengembangan","office":"government","opening_hours":"Mo-Fr 08:00-17:00","phone":"+62 22 7802251","website":"http://www.pusjatan.pu.go.id"}},{"type":"way","id":318494202,"center":{"lat":-6.9084927,"lon":107.6858036},"nodes":[3248999524,3248999525,3248999526,3248999527,3248999524],"tags":{"building":"yes","name":"Balai Bahan dan Perkerasan Jalan","office":"government"}},{"type":"way","id":318494203,"center":{"lat":-6.9088652,"lon":107.685717},"nodes":[3248999528,3248999529,3248999530,3248999531,3248999528],"tags":{"building":"yes","office":"government"}},{"type":"way","id":318494204,"center":{"lat":-6.9093421,"lon":107.6854977},"nodes":[3248999532,3248999533,3248999534,3248999535,3248999536,3248999537,3248999538,3248999539,3248999532],"tags":{"building":"yes","office":"government"}},{"type":"way","id":318494205,"center":{"lat":-6.9096446,"lon":107.6857581},"nodes":[3248999540,3248999541,3248999542,3248999543,3248999540],"tags":{"building":"yes","office":"government"}},{"type":"way","id":318494206,"center":{"lat":-6.9099593,"lon":107.6862369},"nodes":[3248999544,3248999545,3248999546,3248999547,3248999548,3248999549,3248999550,3248999551,3248999544],"tags":{"building":"yes","name":"Balai Lalu Lintas dan Lingkungan Jalan","office":"government"}},{"type":"way","id":318494207,"center":{"lat":-6.910382,"lon":107.6861453},"nodes":[3248999552,3248999553,3248999554,3248999555,3248999552],"tags":{"building":"yes","name":"Balai Lalu Lintas dan Lingkungan Jalan","office":"government"}},{"type":"way","id":318494208,"center":{"lat":-6.9106721,"lon":107.6864765},"nodes":[3248999556,3248999557,3248999558,3248999559,3248999556],"tags":{"building":"yes","name":"Balai Jembatan dan Bangunan Pelengkap Jalan","office":"government"}},{"type":"way","id":318494209,"center":{"lat":-6.9107431,"lon":107.6867257},"nodes":[3248999560,3249003461,3249003462,3249003463,3248999560],"tags":{"building":"yes","name":"Balai Jembatan dan Bangunan Pelengkap Jalan","office":"government"}},{"type":"way","id":319290599,"center":{"lat":-6.9212296,"lon":107.6105692},"nodes":[3257028987,3257028988,3257028989,3257028990,3257028991,3257028992,3257028993,3257028994,3257028995,3257028996,3257028997,3257028998,3257028999,3257029000,3257028987],"tags":{"addr:city":"Bandung","addr:street":"Jalan Asia Afrika","building":"yes","name":"Pikiran Rakyat","office":"newspaper"}},{"type":"way","id":375021051,"center":{"lat":-6.8998206,"lon":107.6207007},"nodes":[3784075464,3784075465,3784075466,3784075467,3784075464],"tags":{"addr:city":"Bandung","addr:housenumber":"57","addr:postcode":"40122","addr:street":"Jalan Diponogoro","building":"yes","name":"Pusat Vulkanologi dan Mitigasi Bencana Geologi","name:en":"Center for Volcanology and Geological Hazard","office":"research"}},{"type":"way","id":376352124,"center":{"lat":-6.9183967,"lon":107.6143159},"nodes":[3797908129,3797908130,3797908131,3797908132,3797908129],"tags":{"building":"yes","name":"Bimbel Tridaya","office":"educational_institution"}},{"type":"way","id":377400062,"center":{"lat":-6.8823845,"lon":107.6158411},"nodes":[3807746898,3807746900,3807746902,3807746901,3807746903,3807746904,3807746897,3807746896,3807746899,3807746898],"tags":{"building":"yes","name":"Grapari","office":"telecommunication"}},{"type":"way","id":380750494,"center":{"lat":-6.8863179,"lon":107.5536948},"nodes":[3840688991,3840688992,3840688993,3840688994,3840688995,3840688996,3840688997,3840688998,3840688999,3840689000,3840689001,3840689002,3840689003,3840689004,3840689005,3840689006,3840688991],"tags":{"building":"yes","name":"Dinas Sosial Provinsi Jawa Barat","office":"government"}},{"type":"way","id":381615286,"center":{"lat":-6.8878562,"lon":107.5648146},"nodes":[3847984466,3847984467,3847984468,3847984469,3847984466],"tags":{"addr:city":"Cimahi","addr:housenumber":"2A","addr:postcode":"40514","addr:street":"Jalan Gunung Satria","building":"yes","name":"SND Racing","office":"company"}},{"type":"way","id":381645552,"center":{"lat":-6.8746023,"lon":107.5799065},"nodes":[3848189833,3848189834,3848189835,3848189836,3848189833],"tags":{"addr:city":"Kota Bandung","addr:district":"sukasari","addr:housename":"Pt. Inditama","addr:postcode":"40151","addr:province":"Jawa Barat","addr:street":"setra murni atas 2","addr:subdistrict":"sukarasa","building":"yes","name":"Pt. Inditama","office":"it"}},{"type":"way","id":381655155,"center":{"lat":-6.9167306,"lon":107.6112021},"nodes":[3848252685,3848252686,3848252687,3848252688,3848252689,3848252690,3848252685],"tags":{"building":"yes","name":"Telkom Lembong Bandung Office","office":"company"}},{"type":"way","id":381655200,"center":{"lat":-6.9210082,"lon":107.6078491},"nodes":[3848253137,3848253138,3848253139,3848253140,3848253141,3848253144,3848253137],"tags":{"addr:city":"Bandung","addr:street":"Jalan Asia Afrika","building":"yes","building:levels":"1","check_date":"2024-11-02","name":"Bank Mandiri Credit Office","office":"financial"}},{"type":"way","id":381656810,"center":{"lat":-6.9059725,"lon":107.6041651},"nodes":[3848261901,3848261902,3848261903,3848261904,3848261901],"tags":{"building":"yes","name":"Lab Kimia Farma Cihampelas","office":"research"}},{"type":"way","id":381658767,"center":{"lat":-6.8985662,"lon":107.6396218},"nodes":[3848271184,3848271185,3848271186,3848271187,3848271184],"tags":{"building":"yes","government":"social_security","name":"BPJS Ketenagakerjaan","office":"government"}},{"type":"way","id":408559940,"center":{"lat":-6.9804049,"lon":107.619649},"nodes":[4104565330,4104565329,4104565314,4104565313,4104565331,4104565332,4104565330],"tags":{"building":"yes","name":"Balai Besar Pulp Dan Kertas","office":"government"}},{"type":"way","id":421572118,"center":{"lat":-6.9207021,"lon":107.6071543},"nodes":[4213227634,4213227635,4213227636,4213227637,4213227634],"tags":{"addr:city":"Bandung","addr:housenumber":"55","addr:street":"Jalan Asia Afrika","building":"office","name":"PT Waskita Karya (Persero)","office":"company"}},{"type":"way","id":421572119,"center":{"lat":-6.9209303,"lon":107.6068401},"nodes":[4213227638,4213227639,2052425473,4213227640,4213227638],"tags":{"addr:city":"Bandung","addr:housenumber":"53","addr:street":"Jalan Asia Afrika","building":"office","name":"Jiwasraya","office":"insurance"}},{"type":"way","id":421572139,"center":{"lat":-6.9212694,"lon":107.6110143},"nodes":[4213227896,4213227897,4213227898,4213227899,4213227896],"tags":{"building":"commercial","building:levels":"4","government":"administrative","name":"Dinas Bina Marga Jawa Barat","office":"government"}},{"type":"way","id":492625682,"center":{"lat":-6.9141681,"lon":107.6084664},"nodes":[4402358764,4846146809,4846146810,4846146811,4846146812,4846146813,4846146817,4846146816,4846146814,4846146815,4402358764],"tags":{"addr:city":"Bandung","addr:housenumber":"137","addr:postcode":"40111","addr:street":"Jalan Braga","landuse":"commercial","name":"Dinas Pengelolaan Sumber Daya Air Provinsi Jawa Barat","office":"government"}},{"type":"way","id":498993742,"center":{"lat":-6.8876785,"lon":107.5637263},"nodes":[4903252844,4903252845,4903252846,4903252847,4903252848,4903252849,4903252844],"tags":{"building":"yes","office":"company"}},{"type":"way","id":512168651,"center":{"lat":-6.9044729,"lon":107.5999866},"nodes":[5008511461,5008511465,5008511466,5008511467,5008511460,5008511464,5008511463,5008511462,5008511461],"tags":{"building":"yes","name":"Dinas Pendidikan Provinsi Jawa Barat","office":"government"}},{"type":"way","id":512276839,"center":{"lat":-6.9013354,"lon":107.6009158},"nodes":[5009229012,5009229011,5009229010,5009229009,5009229012],"tags":{"building":"yes","name":"Balai Besar POM Bandung","office":"government"}},{"type":"way","id":512276854,"center":{"lat":-6.9005975,"lon":107.6006958},"nodes":[5009229161,5009229166,5009229168,12947493669,12947493673,12947493674,12947493670,12947493671,12947493672,5009229167,5009229162,5009229163,5009229164,5009229165,5009229161],"tags":{"building":"yes","name":"Dinas Kesehatan Jawa Barat","office":"government"}},{"type":"way","id":512326443,"center":{"lat":-6.9041446,"lon":107.607567},"nodes":[5009579931,5009579928,5009579929,5009579930,5009579931],"tags":{"building":"yes","name":"Kantor Kelurahan Tamansari Bandung","office":"government"}},{"type":"way","id":512408071,"center":{"lat":-6.8964319,"lon":107.6092427},"nodes":[5010364147,5010364144,5010364145,5010364146,5010364147],"tags":{"building":"yes","name":"Dinas Komunikasi Dan Informatika Provinsi Jawa Barat","office":"government"}},{"type":"way","id":512704808,"center":{"lat":-6.9061731,"lon":107.6194281},"nodes":[5013110799,5013110796,5013110797,5013110798,5013110799],"tags":{"building":"yes","name":"Kejaksaan Tinggi Jawa Barat","office":"government"}},{"type":"way","id":512705123,"center":{"lat":-6.9066212,"lon":107.6219743},"nodes":[5013112193,5013112190,5013112191,5013112192,5013112193],"tags":{"building":"yes","name":"Pengadilan Negeri Bandung Kelas 1A Khusus","office":"government"}},{"type":"way","id":512884460,"center":{"lat":-6.9133362,"lon":107.6180033},"nodes":[5014638242,5014638241,5014638240,5014638239,5014638242],"tags":{"building":"yes","name":"Kantor Kecamatan Sumur Bandung","office":"government"}},{"type":"way","id":513051978,"center":{"lat":-6.9133499,"lon":107.6293371},"nodes":[5016136516,5016136515,5016136514,5016136513,5016136516],"tags":{"building":"yes","name":"Dinas Pariwisata Dan Kebudayaan Provinsi Jawa Barat","office":"government"}},{"type":"way","id":513234390,"center":{"lat":-6.9209236,"lon":107.6264144},"nodes":[5017511549,5017511548,5017511547,5017511546,5017511549],"tags":{"building":"yes","name":"Kantor Kelurahan Samoja","office":"government"}},{"type":"way","id":513325690,"center":{"lat":-6.9117325,"lon":107.6088004},"nodes":[5018139893,5018139890,5018139891,5018139892,5018139893],"tags":{"building":"yes","name":"Dinas Kelautan Dan Perikanan Provinsi Jawa Barat","office":"government"}},{"type":"way","id":513330041,"center":{"lat":-6.9128541,"lon":107.6019837},"nodes":[5018179583,5018179582,5018179581,5018179580,5018179583],"tags":{"building":"yes","office":"yes"}},{"type":"way","id":513330102,"center":{"lat":-6.9148795,"lon":107.6031736},"nodes":[5018179810,5018179807,5018179808,5018179809,5018179810],"tags":{"addr:housenumber":"6","addr:street":"Jalan Stasiun Timur","building":"yes","name":"KAI Services WIlayah 2 Bandung","office":"company"}},{"type":"way","id":513330106,"center":{"lat":-6.9148795,"lon":107.6033973},"nodes":[13519882979,5018179824,5018179823,5018179822,13519882979],"tags":{"addr:housenumber":"8","addr:street":"Jalan Stasiun Timur","building":"yes","name":"Unit Fasilitas Penumpang Daop 2 Bandung","office":"company"}},{"type":"way","id":513439024,"center":{"lat":-6.9282963,"lon":107.6229686},"nodes":[5019008015,5019008012,5019008013,5019008014,5019008015],"tags":{"addr:housenumber":"2A","addr:street":"Jalan Palasari","building":"yes","name":"Kantor Urusan Agama Lengkong","office":"government","short_name":"KUA Lengkong"}},{"type":"way","id":513439027,"center":{"lat":-6.9283392,"lon":107.6227571},"nodes":[5019008027,13438513737,13438513738,5019008024,5019008025,5019008026,13438513735,13438513736,5019008027],"tags":{"building":"yes","name":"Kantor Kecamatan Lengkong","office":"government"}},{"type":"way","id":513811046,"center":{"lat":-6.9226157,"lon":107.6209195},"nodes":[9857217885,5021570684,5021570685,5021570686,9857217885],"tags":{"building":"yes","name":"HDI Enterprise Learning Center Bandung","office":"educational_institution"}},{"type":"way","id":514523512,"center":{"lat":-6.8988271,"lon":107.6217998},"nodes":[5026517202,5026517213,5026517214,5026517215,5026517212,5026517203,5026517204,5026517207,5026517205,5026517206,5026517208,5026517202],"tags":{"building":"yes","name":"Dinas Perkebunan Jawa Barat","office":"government"}},{"type":"way","id":514640030,"center":{"lat":-6.8955901,"lon":107.602547},"nodes":[5027509017,5027509016,5027509015,5027509014,5027509017],"tags":{"addr:housenumber":"82","addr:street":"Jalan Raden Adipati Aria Wiranatakusumah","building":"yes","name":"KAI Commuter Wilayah 2 Bandung","office":"transport"}},{"type":"way","id":517376248,"center":{"lat":-6.9222307,"lon":107.614482},"nodes":[5048888116,5048888113,5048888114,5048888115,5048888116],"tags":{"building":"yes","name":"Dinas Perindustrian dan Perdagangan Provinsi Jawa Barat","office":"government"}},{"type":"way","id":519059849,"center":{"lat":-6.8591993,"lon":107.5936284},"nodes":[5062000047,5062000044,13643759837,13643759836,5062000045,13643759835,5062000046,13643759834,5062000047],"tags":{"building":"yes","name":"Kantor UPT K3 UPI","office":"security"}},{"type":"way","id":520029911,"center":{"lat":-6.8664505,"lon":107.6047644},"nodes":[5069492630,5069492629,5069492628,5069492627,5069492630],"tags":{"building":"yes","name":"Kantor Kelurahan Ciumbuleuit","office":"government"}},{"type":"way","id":520137322,"center":{"lat":-6.8630101,"lon":107.5993994},"nodes":[5070341979,5070341976,5070341977,5070341978,5070341979],"tags":{"building":"yes","government":"administrative","name":"Kantor Kelurahan Ledeng","office":"government"}},{"type":"way","id":522029319,"center":{"lat":-6.8715587,"lon":107.5806332},"nodes":[5085389314,5085389313,5085389312,5085389311,5085389314],"tags":{"building":"yes","name":"Kantor Kelurahan Sarijadi","office":"government"}},{"type":"way","id":522961471,"center":{"lat":-6.8681584,"lon":107.613869},"nodes":[5092238554,5092238551,5092238552,5092238553,5092238554],"tags":{"addr:city":"Bandung","addr:postcode":"40135","addr:street":"Dago, Coblong, Bandung City, West Java 40135","building":"yes","government":"public_service","name":"PLTA DAGO","office":"government"}},{"type":"way","id":530016734,"center":{"lat":-6.8822494,"lon":107.6091726},"nodes":[5147802198,5147802197,5147802196,5147802195,5147802198],"tags":{"addr:city":"Bandung","addr:postcode":"40135","addr:street":"Jl. Sangkuriang No.2, Dago, Kecamatan Coblong, Kota Bandung, Jawa Barat 40135","building":"school","name":"Balai Pusat Data dan Analisa Pembangunan","office":"government"}},{"type":"way","id":530016738,"center":{"lat":-6.881406,"lon":107.6110563},"nodes":[5147802206,5147802205,11414270014,11414270015,5147802202,5147802201,5147802200,11414270016,5147802206],"tags":{"addr:city":"Bandung","addr:postcode":"40135","addr:street":"JL. Sangkuriang, Kompleks LIPI, 40135, Dago, Kecamatan Coblong, Kota Bandung, Jawa Barat 40135","building":"yes","government":"yes","name":"Workshop BRIN","office":"government"}},{"type":"way","id":530016740,"center":{"lat":-6.8818088,"lon":107.6109472},"nodes":[5147802219,5147802218,5147802217,5147802216,5147802215,5147802214,5147802213,5147802212,5147802211,5147802210,5147802209,5147802208,5147802207,5147802219],"tags":{"addr:city":"Bandung","addr:postcode":"40135","addr:street":"JL. Sangkuriang, Kompleks LIPI, 40135, Dago, Kecamatan Coblong, Kota Bandung, Jawa Barat 40135","building":"yes","government":"government","name":"Gedung 10 - BRIN","name:en":"Building 10 - BRIN","name:id":"Building 10 - BRIN","office":"government"}},{"type":"way","id":530016760,"center":{"lat":-6.880426,"lon":107.6098847},"nodes":[5147802457,5147802456,5147802455,5147802454,5147802457],"tags":{"addr:city":"Bandung","addr:postcode":"40135","addr:street":"Jl. Sangkuriang No.12, Dago, Kecamatan Coblong, Kota Bandung, Jawa Barat 40135","building":"yes","government":"yes","name":"Balai Besar Logam dan Mesin, Metal Industries Development Center - MIDC, Kementerian Perindustrian","office":"government"}},{"type":"way","id":530016762,"center":{"lat":-6.8805138,"lon":107.609926},"nodes":[5147802461,5147802460,5147802459,5147802458,5147802461],"tags":{"addr:city":"Bandung","addr:postcode":"40135","addr:street":"Jl. Sangkuriang No.12, Dago, Kecamatan Coblong, Kota Bandung, Jawa Barat 40135","building":"yes","government":"yes","name":"Balai Besar Logam dan Mesin, Metal Industries Development Center - MIDC, Kementerian Perindustrian","office":"government"}},{"type":"way","id":530016766,"center":{"lat":-6.88061,"lon":107.6098636},"nodes":[5147802469,5147802468,5147802467,5147802466,5147802469],"tags":{"addr:city":"Bandung","addr:postcode":"40135","addr:street":"Jl. Sangkuriang No.12, Dago, Kecamatan Coblong, Kota Bandung, Jawa Barat 40135","building":"yes","government":"yes","name":"Balai Besar Logam dan Mesin, Metal Industries Development Center - MIDC, Kementerian Perindustrian","office":"government"}},{"type":"way","id":530016768,"center":{"lat":-6.8808718,"lon":107.610041},"nodes":[5147802473,5147802472,5147802471,5147802470,5147802473],"tags":{"addr:city":"Bandung","addr:postcode":"40135","addr:street":"Jl. Sangkuriang No.12, Dago, Kecamatan Coblong, Kota Bandung, Jawa Barat 40135","building":"yes","government":"yes","name":"Balai Besar Logam dan Mesin, Metal Industries Development Center - MIDC, Kementerian Perindustrian","office":"government"}},{"type":"way","id":530016770,"center":{"lat":-6.8806136,"lon":107.6108293},"nodes":[5147802481,5147802480,5147802479,5147802478,5147802477,5147802476,5147802475,5147802474,5147802481],"tags":{"addr:city":"Bandung","addr:postcode":"40135","addr:street":"Jl. Sangkuriang No.12, Dago, Kecamatan Coblong, Kota Bandung, Jawa Barat 40135","building":"yes","government":"yes","name":"Balai Besar Logam dan Mesin, Metal Industries Development Center - MIDC, Kementerian Perindustrian","office":"government"}},{"type":"way","id":530016773,"center":{"lat":-6.8803275,"lon":107.6101934},"nodes":[5147802485,5147802484,5147802483,5147802482,5147802485],"tags":{"addr:city":"Bandung","addr:postcode":"40135","addr:street":"Jl. Sangkuriang No.12, Dago, Kecamatan Coblong, Kota Bandung, Jawa Barat 40135","building":"yes","government":"yes","name":"Balai Besar Logam dan Mesin, Metal Industries Development Center - MIDC, Kementerian Perindustrian","office":"government"}},{"type":"way","id":530016775,"center":{"lat":-6.8802971,"lon":107.6098693},