{"version":0.6,"generator":"Overpass API 0.7.62.11 87bfad18","osm3s":{"timestamp_osm_base":"2026-06-16T10:43:23Z","copyright":"The data included in this document is from www.openstreetmap.org. The data is made available under ODbL."},"elements":[{"type":"node","id":31288741,"lat":-6.8869435,"lon":107.5811614,"tags":{"amenity":"restaurant","name":"Terazza"}},{"type":"node","id":31288745,"lat":-6.8873695,"lon":107.5816872,"tags":{"amenity":"restaurant","name":"Inti Laut"}},{"type":"node","id":32041537,"lat":-6.8815495,"lon":107.5944013,"tags":{"amenity":"restaurant","name":"Grace"}},{"type":"node","id":32041585,"lat":-6.8807109,"lon":107.5959997,"tags":{"amenity":"restaurant","created_by":"JOSM","name":"Tomodachi"}},{"type":"node","id":32041593,"lat":-6.8715552,"lon":107.5940509,"tags":{"addr:city":"Bandung","addr:housenumber":"174","addr:street":"Jl. Setiabudhi","amenity":"restaurant","name":"Suis Butcher Steak House"}},{"type":"node","id":32041600,"lat":-6.8858733,"lon":107.5962969,"tags":{"amenity":"restaurant","name":"Ikan Bakar Pak Chi Met"}},{"type":"node","id":32041651,"lat":-6.8752093,"lon":107.5964539,"tags":{"amenity":"restaurant","name":"Ikan Bakar Cianjur"}},{"type":"node","id":32041698,"lat":-6.8843694,"lon":107.6012683,"tags":{"addr:city":"Bandung","addr:housenumber":"171","addr:street":"Jalan Cipaganti","amenity":"restaurant","name":"Ny. Suharti"}},{"type":"node","id":32041903,"lat":-6.9027926,"lon":107.5978878,"tags":{"addr:city":"Bandung, Jawa Barat","addr:housenumber":"160","addr:street":"Jalan Pasirkaliki","amenity":"restaurant","cuisine":"regional","name":"Bumbu Desa Pasir Kaliki"}},{"type":"node","id":32519040,"lat":-6.8977742,"lon":107.6036158,"tags":{"amenity":"restaurant","created_by":"JOSM","name":"Sapu Lidi"}},{"type":"node","id":32519044,"lat":-6.8799127,"lon":107.5838387,"tags":{"addr:city":"Bandung","addr:housenumber":"1","addr:postcode":"40163","addr:street":"Jalan Setra Ria","amenity":"restaurant","cuisine":"seafood","name":"Raja Rasa"}},{"type":"node","id":32519045,"lat":-6.9058695,"lon":107.5931889,"tags":{"amenity":"restaurant","name":"Oishii Steak"}},{"type":"node","id":32519051,"lat":-6.9057417,"lon":107.6176217,"tags":{"addr:city":"Cihapit, Bandung, Jawa Barat","addr:housenumber":"67","addr:street":"Jalan R.E. Martadinata","amenity":"restaurant","name":"Dakken"}},{"type":"node","id":32519052,"lat":-6.8914029,"lon":107.61281,"tags":{"amenity":"restaurant","building":"yes","building:levels":"5","building:roof":"tile","building:structure":"confined_masonry","building:use":"accommodation","building:walls":"brick","name":"Dago Panyawangan"}},{"type":"node","id":32519055,"lat":-6.8990133,"lon":107.6195912,"tags":{"amenity":"restaurant","name":"Simpang Raya"}},{"type":"node","id":32519056,"lat":-6.8990098,"lon":107.6197139,"tags":{"addr:city":"Bandung, Jawa BArat","addr:housenumber":"53","addr:street":"Jl. Surapati","amenity":"restaurant","name":"Sindang Reret"}},{"type":"node","id":32519340,"lat":-6.9018456,"lon":107.6214397,"tags":{"amenity":"restaurant","name":"Yoghurt Cisangkuy"}},{"type":"node","id":32519342,"lat":-6.9055352,"lon":107.6271646,"tags":{"addr:housenumber":"41","addr:postcode":"40114","addr:street":"Jalan Cilaki","amenity":"restaurant","name":"Road Cafe"}},{"type":"node","id":32520411,"lat":-6.9019586,"lon":107.6115579,"tags":{"alt_name":"Dunkin' Donuts","amenity":"fast_food","branch":"Donut Dago","brand":"Dunkin'","brand:wikidata":"Q847743","cuisine":"donut;coffee_shop","name":"Dunkin'","name:en":"Dunkin Donuts","takeaway":"yes"}},{"type":"node","id":479720008,"lat":-6.8668218,"lon":107.6090526,"tags":{"addr:city":"Bandung","addr:housenumber":"12","addr:street":"Jalan Kiputih","amenity":"restaurant","name":"Bumi Sangkuriang","opening_hours":"Mo-Su 07:00-23:00","phone":"+62 22 2032661","website":"https://bumi-sangkuriang.business.site/"}},{"type":"node","id":1013408385,"lat":-6.9154742,"lon":107.6028366,"tags":{"amenity":"fast_food","name":"Sate Hadori"}},{"type":"node","id":1107662817,"lat":-6.8813231,"lon":107.5815533,"tags":{"amenity":"fast_food","name":"Dunkin Donut"}},{"type":"node","id":1107877729,"lat":-6.9167625,"lon":107.6183923,"tags":{"amenity":"restaurant","name":"Sate Pak Ginno","wheelchair":"yes"}},{"type":"node","id":1108586477,"lat":-6.9027613,"lon":107.6104139,"tags":{"addr:city":"Bandung, Jawa Barat","addr:street":"Jl. Ranggagading","amenity":"restaurant","name":"Madthari"}},{"type":"node","id":1108586489,"lat":-6.9009918,"lon":107.6134343,"tags":{"amenity":"restaurant","name":"Sate Maulana Yusuf"}},{"type":"node","id":1158819807,"lat":-6.9126453,"lon":107.5983597,"tags":{"amenity":"restaurant","name":"Sate Karjan"}},{"type":"node","id":1308708818,"lat":-6.898751,"lon":107.6030848,"tags":{"addr:city":"Bandung","addr:housenumber":"8","addr:postcode":"40161","addr:street":"jalan boscha","amenity":"restaurant","name":"Barbar Wing's","opening_hours":"Mo-Su 06:00-23:55","phone":"+6285624478749","smoking":"outside","website":"https://barbarwings.wordpress.com/"}},{"type":"node","id":1341941777,"lat":-6.8925163,"lon":107.6127554,"tags":{"amenity":"fast_food","building":"yes","building:levels":"2","building:roof":"concrete","building:structure":"reinforced_masonry","building:use":"commercial","building:walls":"brick","cuisine":"pizza","name":"Pizza Place"}},{"type":"node","id":1341941792,"lat":-6.8867215,"lon":107.6167462,"tags":{"addr:city":"Lb. Siliwangi, Coblong, Kota Bandung, Jawa Barat","addr:housenumber":"127","addr:street":"Jl. Ir. H.Djuanda","amenity":"restaurant","cuisine":"regional","name":"dago panyawangan","name:en":"Panyawangan"}},{"type":"node","id":1342896154,"lat":-6.8872957,"lon":107.6138988,"tags":{"amenity":"restaurant","name":"Dago Panineungan","name:en":"Panineungan"}},{"type":"node","id":1346794366,"lat":-6.8972541,"lon":107.6147191,"tags":{"addr:city":"Bandung, Jawa Barat","addr:street":"Jl. Dipatiukur","amenity":"restaurant","name":"B'gana restoran","name:it":"B'gana"}},{"type":"node","id":1346794387,"lat":-6.8968401,"lon":107.6152372,"tags":{"addr:city":"Bandung, Jawa Barat","addr:housenumber":"2","addr:street":"Jl. Pager Gunung","amenity":"restaurant","name":"Victoria"}},{"type":"node","id":1352122684,"lat":-6.897292,"lon":107.6363552,"tags":{"addr:city":"Bandung","addr:district":"Bandung","addr:housenumber":"23","addr:province":"Jawa Barat","addr:street":"Jalan PH. H. Mustofa","addr:subdistrict":"Cibeunying Kaler","amenity":"fast_food","contact:facebook":"https://www.facebook.com/itenas.official/","email":"promosi@itenas.ac.id","internet_access":"yes","internet_access:fee":"customers","mobile":"+62822-1612-7225","name":"Itenas Bandung","phone":"+62822-1612-7225","source":"survey;local knowledge","website":"https://www.itenas.ac.id/"}},{"type":"node","id":1352129471,"lat":-6.8982722,"lon":107.6369137,"tags":{"amenity":"restaurant","name":"Ampera"}},{"type":"node","id":1383698859,"lat":-6.8840078,"lon":107.6150326,"tags":{"amenity":"fast_food","cuisine":"chicken","name":"Ayam Ayaman"}},{"type":"node","id":1385420759,"lat":-6.8837407,"lon":107.6148998,"tags":{"amenity":"restaurant","name":"Rumah Makan Padang"}},{"type":"node","id":1655715160,"lat":-6.8682162,"lon":107.5934603,"tags":{"alt_name":"Kentucky Fried Chicken","amenity":"fast_food","brand":"KFC","brand:wikidata":"Q524757","brand:wikipedia":"en:KFC","cuisine":"chicken","name":"KFC","takeaway":"yes"}},{"type":"node","id":1655715182,"lat":-6.8682748,"lon":107.5938519,"tags":{"amenity":"restaurant","name":"Warung Surabi Setiabudhi"}},{"type":"node","id":1655736890,"lat":-6.8789798,"lon":107.5979852,"tags":{"addr:street":"Jalan Dokter Setiabudhi","amenity":"fast_food","cuisine":"japanese","name":"HokBen"}},{"type":"node","id":1656979199,"lat":-6.8823595,"lon":107.5758245,"tags":{"amenity":"restaurant","cuisine":"regional","name":"RM Padang Mirasari"}},{"type":"node","id":1656979200,"lat":-6.8823742,"lon":107.5762796,"tags":{"amenity":"restaurant","name":"RM Padang Siang Malam"}},{"type":"node","id":1657013613,"lat":-6.873753,"lon":107.5957989,"tags":{"amenity":"restaurant","cuisine":"regional","name":"RM Daun Pisang"}},{"type":"node","id":1657158617,"lat":-6.8744394,"lon":107.5962776,"tags":{"amenity":"restaurant","cuisine":"regional","name":"Warung Tekko"}},{"type":"node","id":1657158618,"lat":-6.8703438,"lon":107.5917527,"tags":{"amenity":"restaurant","cuisine":"kebab","name":"Kambing Bakar Cairo"}},{"type":"node","id":1657182090,"lat":-6.8784018,"lon":107.5977475,"tags":{"alt_name":"Kentucky Fried Chicken","amenity":"fast_food","brand":"KFC","brand:wikidata":"Q524757","brand:wikipedia":"en:KFC","cuisine":"chicken","name":"KFC","takeaway":"yes"}},{"type":"node","id":1660110853,"lat":-6.8831642,"lon":107.6025761,"tags":{"amenity":"restaurant","cuisine":"pizza","name":"Pizza Hut"}},{"type":"node","id":1666758044,"lat":-6.8828983,"lon":107.6005782,"tags":{"amenity":"restaurant","cuisine":"regional","name":"RM Padang Sederhana"}},{"type":"node","id":1668245119,"lat":-6.8943171,"lon":107.6089129,"tags":{"amenity":"restaurant","cuisine":"regional","name":"Kantin Garasi"}},{"type":"node","id":1676404546,"lat":-6.8716969,"lon":107.5941246,"tags":{"addr:city":"Bandung","addr:housenumber":"172","addr:street":"Jalan Setiabudi","amenity":"restaurant","name":"Bebek Goreng H. Slamet"}},{"type":"node","id":1700556142,"lat":-6.9010333,"lon":107.6016546,"tags":{"amenity":"restaurant","cuisine":"regional","name":"Ayam Cobek Langganan"}},{"type":"node","id":1746761936,"lat":-6.8939696,"lon":107.6055017,"tags":{"addr:postcode":"40131","addr:street":"Jalan Cihampelas","amenity":"cafe","brand":"Starbucks","brand:wikidata":"Q37158","brand:wikipedia":"en:Starbucks","cuisine":"coffee_shop","email":"feedback@starbucks.co.id","internet_access":"wlan","name":"Starbucks","official_name":"Starbucks Coffee","phone":"+62 22 2061102","takeaway":"yes"}},{"type":"node","id":1746761937,"lat":-6.8934997,"lon":107.6050826,"tags":{"amenity":"restaurant","cuisine":"japanese","name":"Bebek Crispy","name:en":"Shin Men"}},{"type":"node","id":1873943402,"lat":-6.8825278,"lon":107.5802874,"tags":{"amenity":"restaurant","name":"Pempek Pak Raden"}},{"type":"node","id":1919646272,"lat":-6.9255337,"lon":107.605885,"tags":{"amenity":"fast_food"}},{"type":"node","id":1924435629,"lat":-6.8940968,"lon":107.6067326,"tags":{"amenity":"bar","name":"Score"}},{"type":"node","id":1924435637,"lat":-6.8947619,"lon":107.6043216,"tags":{"addr:postcode":"40131","amenity":"fast_food","cuisine":"sandwich","name":"Roppan"}},{"type":"node","id":1924435638,"lat":-6.8947276,"lon":107.6044044,"tags":{"addr:housenumber":"160","addr:postcode":"40131","addr:street":"Jalan Cihampelas","alt_name":"Kentucky Fried Chicken","amenity":"fast_food","brand":"KFC","brand:wikidata":"Q524757","brand:wikipedia":"en:KFC","cuisine":"chicken","name":"KFC","phone":"+62 22 2061060","takeaway":"yes"}},{"type":"node","id":1924435639,"lat":-6.8942243,"lon":107.6047504,"tags":{"amenity":"fast_food","brand":"Wendy's","brand:wikidata":"Q550258","brand:wikipedia":"en:Wendy's","cuisine":"burger","name":"Wendy's","takeaway":"yes"}},{"type":"node","id":1924435646,"lat":-6.8939367,"lon":107.6050187,"tags":{"amenity":"restaurant","cuisine":"regional","name":"BMK"}},{"type":"node","id":1924450381,"lat":-6.8959285,"lon":107.6031089,"tags":{"addr:city":"Pasteur, Sukajadi, Kota Bandung, Jawa Barat","addr:housenumber":"3","addr:street":"JL Prof. Eyckman","amenity":"restaurant","cuisine":"german","name":"Mama’s Greman Restaurant"}},{"type":"node","id":1956516949,"lat":-6.869002,"lon":107.6208824,"tags":{"amenity":"cafe","name":"SPBU Dago","name:en":"Spbu"}},{"type":"node","id":1969331842,"lat":-6.9009712,"lon":107.6125356,"tags":{"amenity":"restaurant","brand":"Pizza Hut","brand:wikidata":"Q191615","cuisine":"pizza","name":"Pizza Hut"}},{"type":"node","id":2095980185,"lat":-6.8689658,"lon":107.5939841,"tags":{"amenity":"restaurant","name":"Kedai Bibie","source":"survey"}},{"type":"node","id":2258183015,"lat":-6.8561749,"lon":107.5958927,"tags":{"amenity":"restaurant","cuisine":"regional","name":"Kampung Baso"}},{"type":"node","id":2429254335,"lat":-6.9267334,"lon":107.6132906,"tags":{"addr:city":"Bandung","addr:housenumber":"#97","addr:postcode":"40261","addr:street":"Jalan Lengkong Besar","amenity":"restaurant","name":"Atmosphere Resort Cafe","name:en":"Atmosphere"}},{"type":"node","id":2429258324,"lat":-6.924869,"lon":107.6196988,"tags":{"amenity":"restaurant","name":"Baso Malang Enggal"}},{"type":"node","id":2429262280,"lat":-6.8879183,"lon":107.615515,"tags":{"addr:housenumber":"94","addr:street":"Jalan Dipatiukur","amenity":"restaurant","name":"Pempek Pak Raden"}},{"type":"node","id":2490686956,"lat":-6.9198235,"lon":107.6170063,"tags":{"amenity":"restaurant","name":"Baso Semar"}},{"type":"node","id":2491840024,"lat":-6.9230613,"lon":107.6131868,"tags":{"amenity":"restaurant","name":"Warung Steak and Shake"}},{"type":"node","id":2491855814,"lat":-6.8880195,"lon":107.6016212,"tags":{"amenity":"restaurant","name":"Bloemen"}},{"type":"node","id":2492054087,"lat":-6.8936141,"lon":107.6057343,"tags":{"amenity":"restaurant","cuisine":"japanese","name":"Gokana"}},{"type":"node","id":2494582240,"lat":-6.8696348,"lon":107.6202679,"tags":{"amenity":"restaurant","name":"Kopi Panggang"}},{"type":"node","id":2496127734,"lat":-6.9067229,"lon":107.6208472,"tags":{"amenity":"restaurant","name":"Gudeg Banda"}},{"type":"node","id":2496127739,"lat":-6.9069786,"lon":107.6208901,"tags":{"amenity":"cafe","name":"Kopi Saring Sinar Pagi"}},{"type":"node","id":2496127740,"lat":-6.907068,"lon":107.6200544,"tags":{"amenity":"restaurant","name":"Bebek van Java"}},{"type":"node","id":2496127741,"lat":-6.9068905,"lon":107.6197771,"tags":{"addr:city":"Bandung","addr:housenumber":"45","addr:street":"Jalan Lombok","amenity":"restaurant","name":"Tama Gochi All You Can Eat"}},{"type":"node","id":2496127742,"lat":-6.9104934,"lon":107.6184011,"tags":{"amenity":"restaurant","name":"Warung Steak and Shake"}},{"type":"node","id":2497173677,"lat":-6.8937286,"lon":107.6050758,"tags":{"amenity":"restaurant","cuisine":"korean","name":"Mujigae"}},{"type":"node","id":2497173678,"lat":-6.8931108,"lon":107.6050973,"tags":{"amenity":"restaurant","level":"2","name":"Gigglebox"}},{"type":"node","id":2497173763,"lat":-6.9110685,"lon":107.6267052,"tags":{"amenity":"restaurant","brand":"Pizza Hut","brand:wikidata":"Q191615","cuisine":"pizza","dish":"pizza","name":"Pizza Hut Ristorante","opening_hours":"Mo-Su 10:00-22:00"}},{"type":"node","id":2641144987,"lat":-6.8811942,"lon":107.5811045,"tags":{"addr:city":"BANDUNG","addr:housenumber":"SUNNY DAY","addr:street":"Ters. Prof. DR. Sutami","amenity":"bar","name":"SUNNY DAY","name:en":"Sunny Day"}},{"type":"node","id":2725732963,"lat":-6.9052749,"lon":107.5961955,"tags":{"addr:city":"Bandung","addr:housenumber":"16","addr:street":"Astina","amenity":"restaurant","capacity":"50","cuisine":"sundanese","name":"Warung Nasi Kang EWOK","phone":"+62 22 6038 783, +62 22 9203 5359"}},{"type":"node","id":3001806573,"lat":-6.9196306,"lon":107.5935729,"tags":{"addr:city":"Bandung","addr:housenumber":"299","addr:postcode":"40241","addr:street":"Jendral Sudirman","amenity":"restaurant","capacity":"125","check_date:opening_hours":"2023-07-23","cuisine":"chicken","name":"Chicken Farms","opening_hours":"09:00-21:00","smoking":"separated"}},{"type":"node","id":3017729954,"lat":-6.8942667,"lon":107.610979,"tags":{"amenity":"restaurant","cuisine":"regional","name":"Kantin Salman"}},{"type":"node","id":3017729959,"lat":-6.8903481,"lon":107.6087349,"tags":{"amenity":"restaurant","name":"Kantin GKU"}},{"type":"node","id":3017729960,"lat":-6.8905771,"lon":107.6093626,"tags":{"amenity":"restaurant","name":"Kantin Borju"}},{"type":"node","id":3017729961,"lat":-6.8917009,"lon":107.6116156,"tags":{"amenity":"restaurant","name":"Kantin Barak"}},{"type":"node","id":3017729963,"lat":-6.8883084,"lon":107.6088476,"tags":{"amenity":"restaurant","name":"KBL"}},{"type":"node","id":3029767274,"lat":-6.8643925,"lon":107.6278981,"tags":{"addr:city":"Bandung, Jawa Barat","addr:postcode":"40154","addr:street":"Bukit Pakar Timur IV Kav B1","amenity":"cafe"}},{"type":"node","id":3030478604,"lat":-6.9019099,"lon":107.611152,"tags":{"addr:city":"Bandung, Jawa Barat","addr:street":"Saung Galing","amenity":"fast_food","brand":"Domino's","brand:wikidata":"Q839466","cuisine":"pizza","name":"Domino's","takeaway":"yes"}},{"type":"node","id":3064180843,"lat":-6.8792672,"lon":107.6127822,"tags":{"amenity":"restaurant"}},{"type":"node","id":3064183062,"lat":-6.8898807,"lon":107.6172141,"tags":{"amenity":"restaurant"}},{"type":"node","id":3148868098,"lat":-6.9256802,"lon":107.6276337,"tags":{"addr:city":"Bandung","addr:housenumber":"45","addr:street":"Jalan Pelajar Pejuang 45","amenity":"restaurant","cuisine":"burger","name":"Jackstar"}},{"type":"node","id":3155746370,"lat":-6.9169297,"lon":107.6093123,"tags":{"addr:city":"Bandung","addr:housenumber":"70","addr:postcode":"40111","addr:street":"Braga","amenity":"restaurant","cuisine":"asian","name":"Bandung Suki Restaurant","name:en":"Bandung Suki","opening_hours":"Mon-Sat: 10 AM - 10 PM, Sun & Holiday: 08 AM - 10 PM","phone":"+62 22 420-7452","smoking":"separated"}},{"type":"node","id":3351632794,"lat":-6.869891,"lon":107.5934101,"tags":{"amenity":"restaurant","cuisine":"asian","name":"AEP's Nasi Goreng"}},{"type":"node","id":3386314313,"lat":-6.9188476,"lon":107.6067686,"tags":{"amenity":"restaurant","bus":"yes","name":"Angkringan Losari","ref":"Banceuy/ABC"}},{"type":"node","id":3421238301,"lat":-6.9021325,"lon":107.6040636,"tags":{"addr:city":"Bandung","addr:street":"Cihampelas","amenity":"cafe","cuisine":"coffee_shop","name":"Habenagen Coffeeshop","name:en":"Habenhagen"}},{"type":"node","id":3424716400,"lat":-6.91157,"lon":107.627266,"tags":{"addr:city":"Bandung","addr:housenumber":"128","addr:street":"Jalan Laks. R.E. Martadinata","amenity":"restaurant","name":"Sederhana"}},{"type":"node","id":3428599973,"lat":-6.9060828,"lon":107.6202185,"tags":{"alt_name":"Indomaret Point","amenity":"cafe","brand":"Point Coffee","brand:wikidata":"Q124651558","cuisine":"coffee_shop","name":"Point Coffee","takeaway":"yes"}},{"type":"node","id":3429603279,"lat":-6.9136255,"lon":107.6289496,"tags":{"amenity":"restaurant","name":"Ayam Bakar Wong Song"}},{"type":"node","id":3429603356,"lat":-6.9070431,"lon":107.6230593,"tags":{"amenity":"cafe","name":"The Oldway Cafe"}},{"type":"node","id":3429872583,"lat":-6.9161351,"lon":107.6304057,"tags":{"amenity":"restaurant","name":"Cizz"}},{"type":"node","id":3431431053,"lat":-6.9287447,"lon":107.6222637,"tags":{"amenity":"restaurant","name":"Kopi Anjis"}},{"type":"node","id":3628110744,"lat":-6.9159688,"lon":107.602779,"tags":{"addr:housenumber":"134","addr:street":"Jalan Suniaraja","amenity":"fast_food","name":"Perkedel Bondon","opening_hours":"Mo-Su 23:00-03:00"}},{"type":"node","id":3687913375,"lat":-6.918789,"lon":107.609592,"tags":{"addr:city":"Bandung","addr:housenumber":"47","addr:street":"Jalan Braga","amenity":"pub","atm":"no","cuisine":"indonesian","food":"yes","internet_access":"wlan","name":"Braga Huis","smoking":"yes","source":"Site visit, Bing"}},{"type":"node","id":3757788976,"lat":-6.8838733,"lon":107.6150099,"tags":{"amenity":"restaurant","cuisine":"korean","name":"Gangnam Pocha"}},{"type":"node","id":3797907540,"lat":-6.8986257,"lon":107.613195,"tags":{"addr:city":"Bandung, Jawa Barat","addr:postcode":"40132","addr:street":"Jalan Ir. H. Juanda","amenity":"restaurant","capacity":"20","cuisine":"regional","name":"Sop Kaki","opening_hours":"18:00-24:00","takeaway":"yes"}},{"type":"node","id":3797908063,"lat":-6.9031083,"lon":107.6154995,"tags":{"air_conditioning":"no","amenity":"restaurant","capacity":"5","cuisine":"regional","diet:halal":"yes","name":"Lontong Kari Gempol","opening_hours":"06:00-10:00","takeaway":"yes"}},{"type":"node","id":3797908082,"lat":-6.9045738,"lon":107.6140864,"tags":{"amenity":"restaurant","capacity":"20","cuisine":"regional","name":"Bakso Arief","takeaway":"yes"}},{"type":"node","id":3797908083,"lat":-6.9045936,"lon":107.6141887,"tags":{"amenity":"restaurant","cuisine":"regional","name":"Dianti Daily"}},{"type":"node","id":3797908084,"lat":-6.9046556,"lon":107.6141388,"tags":{"amenity":"restaurant","cuisine":"korean","name":"Soo Moo Hun"}},{"type":"node","id":3797908134,"lat":-6.9183143,"lon":107.6143286,"tags":{"amenity":"cafe","cuisine":"ice_cream","name":"Kabut Salju"}},{"type":"node","id":3797908148,"lat":-6.919286,"lon":107.6169434,"tags":{"amenity":"restaurant","cuisine":"chicken","name":"Ayam Goreng Nikmat","takeaway":"yes"}},{"type":"node","id":3802205384,"lat":-6.9007525,"lon":107.5970316,"tags":{"addr:city":"Bandung, Jawa Barat","addr:housenumber":"185-189","addr:street":"Jalan Pasir Kaliki","amenity":"restaurant","check_date:opening_hours":"2022-08-09","name":"Bebek Kaleyo","opening_hours":"Mo-Sa 11:00-23:00","website":"https://www.kaleyo.com"}},{"type":"node","id":3803628057,"lat":-6.8964177,"lon":107.595882,"tags":{"amenity":"restaurant","cuisine":"padang","name":"Ambun Pagi"}},{"type":"node","id":3806721273,"lat":-6.8782448,"lon":107.6169053,"tags":{"amenity":"restaurant","name":"Aem Pek 322 Dago","name:en":"Aem Pek"}},{"type":"node","id":3806721278,"lat":-6.878149,"lon":107.6169412,"tags":{"amenity":"restaurant","name":"Baso Malang 336"}},{"type":"node","id":3806721279,"lat":-6.8846311,"lon":107.6140131,"tags":{"amenity":"restaurant","name":"Baso dan Batagor H.Dartowahab"}},{"type":"node","id":3806721281,"lat":-6.878483,"lon":107.616839,"tags":{"amenity":"cafe","name":"Cokotetra"}},{"type":"node","id":3806721290,"lat":-6.8803626,"lon":107.6163564,"tags":{"amenity":"restaurant","name":"Goelali"}},{"type":"node","id":3806721295,"lat":-6.8811193,"lon":107.6161344,"tags":{"amenity":"restaurant","name":"Kebab Turki"}},{"type":"node","id":3806721296,"lat":-6.8786715,"lon":107.616787,"tags":{"amenity":"restaurant","cuisine":"chinese","name":"Kedai Chinese Food Nikmat","name:en":"Kedai Nikmat"}},{"type":"node","id":3806721297,"lat":-6.8804359,"lon":107.6163385,"tags":{"amenity":"restaurant","name":"Kedai Roti 280"}},{"type":"node","id":3806721298,"lat":-6.8811754,"lon":107.6161217,"tags":{"amenity":"restaurant","name":"Lomie & Bakmie Inam Bonjol"}},{"type":"node","id":3806721299,"lat":-6.8787037,"lon":107.6167785,"tags":{"amenity":"restaurant","name":"Mie Baso Sapi Panghegar"}},{"type":"node","id":3806721300,"lat":-6.8788817,"lon":107.6167362,"tags":{"amenity":"restaurant","name":"Nasi Timbal"}},{"type":"node","id":3806721307,"lat":-6.8775391,"lon":107.6174599,"tags":{"amenity":"fast_food","brand":"Pizza Hut","brand:wikidata":"Q191615","cuisine":"pizza","delivery":"yes","name":"Pizza Hut Delivery","takeaway":"only"}},{"type":"node","id":3806721308,"lat":-6.8845352,"lon":107.6135695,"tags":{"amenity":"restaurant","name":"RAMEN HOUSE YAGAMI","name:en":"Ramen House Yagami"}},{"type":"node","id":3806721322,"lat":-6.8834273,"lon":107.6147436,"tags":{"amenity":"restaurant","name":"Toko Restu"}},{"type":"node","id":3806721325,"lat":-6.8834511,"lon":107.6147196,"tags":{"amenity":"cafe","name":"YUTAKANA","name:en":"Yutakana"}},{"type":"node","id":3806746614,"lat":-6.8767404,"lon":107.6179507,"tags":{"amenity":"restaurant","name":"Dendeng Batokok Dago"}},{"type":"node","id":3806758498,"lat":-6.8745715,"lon":107.6191251,"tags":{"amenity":"restaurant","name":"Bakmi Jogja"}},{"type":"node","id":3806758500,"lat":-6.8745072,"lon":107.6191486,"tags":{"amenity":"restaurant","name":"Roti Gareng"}},{"type":"node","id":3806758502,"lat":-6.8746857,"lon":107.6190813,"tags":{"amenity":"restaurant","name":"Warteg Dua Putri"}},{"type":"node","id":3807746623,"lat":-6.8674478,"lon":107.6209107,"tags":{"amenity":"restaurant","name":"Bamboo Shack Cafe"}},{"type":"node","id":3807746627,"lat":-6.8717491,"lon":107.620125,"tags":{"amenity":"restaurant","name":"Kambing Soon"}},{"type":"node","id":3807746631,"lat":-6.8675629,"lon":107.6208871,"tags":{"amenity":"restaurant","name":"Rumah Makan Pak Kumis 999"}},{"type":"node","id":3807746632,"lat":-6.8698557,"lon":107.6205977,"tags":{"amenity":"restaurant","name":"SOBREMESA RESTO","name:en":"Sobremesa"}},{"type":"node","id":3807746638,"lat":-6.8699337,"lon":107.6204523,"tags":{"amenity":"restaurant","name":"Warung Nasi Rengganis"}},{"type":"node","id":3807746639,"lat":-6.8734448,"lon":107.6196056,"tags":{"amenity":"restaurant","name":"Warung Tegal Makga Jaya"}},{"type":"node","id":3808509533,"lat":-6.8951031,"lon":107.617139,"tags":{"amenity":"fast_food","name":"Sambal Mangga"}},{"type":"node","id":3809369311,"lat":-6.867961,"lon":107.620412,"tags":{"amenity":"restaurant","name":"Dj Studio Pedas Gila"}},{"type":"node","id":3809369316,"lat":-6.8665928,"lon":107.6208379,"tags":{"amenity":"fast_food","name":"Martabak"}},{"type":"node","id":3809369327,"lat":-6.8677746,"lon":107.6204866,"tags":{"amenity":"restaurant","name":"Warkop Pancong"}},{"type":"node","id":3809662418,"lat":-6.926744,"lon":107.6276202,"tags":{"amenity":"restaurant","name":"Ngopi Doeloe"}},{"type":"node","id":3809666549,"lat":-6.9027187,"lon":107.6136333,"tags":{"amenity":"restaurant","name":"Nasi Penjara"}},{"type":"node","id":3816558659,"lat":-6.9194536,"lon":107.6161559,"tags":{"addr:housenumber":"44","addr:street":"Jalan Veteran","amenity":"restaurant","name":"Dapur Thailand","phone":"+62 022 4209268"}},{"type":"node","id":3818319733,"lat":-6.9026858,"lon":107.5973876,"tags":{"amenity":"restaurant","name":"Herb & Spice"}},{"type":"node","id":3818634238,"lat":-6.8966337,"lon":107.5970159,"tags":{"amenity":"restaurant","name":"Bakmi Jogja"}},{"type":"node","id":3818634239,"lat":-6.8967854,"lon":107.5970217,"tags":{"amenity":"restaurant","name":"Waroeng Milk and Shake"}},{"type":"node","id":3820681048,"lat":-6.8951185,"lon":107.5880348,"tags":{"addr:housenumber":"119D","addr:street":"Jl. Dr. Djunjunan","amenity":"restaurant","cuisine":"Sundanese","name":"Ampera","opening_hours":"Mo-Su 09:00-22:00","website":"http://www.amperadalemkaum.com/?m=1"}},{"type":"node","id":3869649927,"lat":-6.9414117,"lon":107.6671503,"tags":{"addr:street":"Venus Raya","alt_name":"PHD","amenity":"fast_food","branch":"Bandung Margahayu Venus","check_date":"2023-10-06","cuisine":"pizza","delivery":"yes","drive_through":"no","name":"Pizza Hut Delivery","opening_hours":"24/7","operator":"Pizza Hut","takeaway":"only"}},{"type":"node","id":4084457201,"lat":-6.893351,"lon":107.6051095,"tags":{"amenity":"restaurant","name":"Raa Cha"}},{"type":"node","id":4087803423,"lat":-6.8594667,"lon":107.5950246,"tags":{"amenity":"restaurant","name":"Ampera"}},{"type":"node","id":4087805054,"lat":-6.8975809,"lon":107.6121376,"tags":{"addr:city":"Bandung","addr:housenumber":"85","addr:street":"Jalan Ir. H. Juanda","amenity":"restaurant","internet_access":"wlan","name":"Madame Sari","phone":"+62 22 2509495"}},{"type":"node","id":4087805724,"lat":-6.8969429,"lon":107.5907416,"tags":{"amenity":"restaurant","name":"Raja Sunda"}},{"type":"node","id":4142931293,"lat":-6.8829482,"lon":107.6137095,"tags":{"amenity":"restaurant","cuisine":"asian","name":"Tizi's Cafe","name:en":"Tizi's","opening_hours":"Mo-Su 10:00-21:00"}},{"type":"node","id":4143035306,"lat":-6.9135741,"lon":107.659887,"tags":{"addr:street":"Jalan Terusan Jakarta","amenity":"fast_food","name":"MIE AYAM ANTAPANI"}},{"type":"node","id":4143042094,"lat":-6.9238746,"lon":107.6457785,"tags":{"amenity":"fast_food","name":"BAKSO LOTUS","name:en":"Bakso Lotus"}},{"type":"node","id":4143043089,"lat":-6.9379247,"lon":107.6774013,"tags":{"amenity":"pub","name":"DS Karaoke n pub"}},{"type":"node","id":4143047190,"lat":-6.9308355,"lon":107.6409925,"tags":{"addr:street":"Jenderal Gatot Subroto","amenity":"fast_food","name":"MI TEKTEK GATSU","name:en":"Mi Tektek Gatsu"}},{"type":"node","id":4143048396,"lat":-6.909191,"lon":107.6276245,"tags":{"addr:street":"Jalan Bengawan","amenity":"cafe","name":"Roti Gempol & Kopi Anjis!"}},{"type":"node","id":4143072990,"lat":-6.9089804,"lon":107.627429,"tags":{"addr:street":"Jalan Bengawan","amenity":"cafe","name":"KAFE SISHA FURDAN"}},{"type":"node","id":4144142393,"lat":-6.868265,"lon":107.6091207,"tags":{"addr:city":"Bandung","addr:housenumber":"#11A","addr:postcode":"40142","addr:street":"Jalan Rancabentang","amenity":"restaurant","internet_access":"wlan","name":"Miss Bee Providore","opening_hours":"Mo-Su 07:00-23:00"}},{"type":"node","id":4144193089,"lat":-6.8679495,"lon":107.6073027,"tags":{"addr:street":"Jalan Gunung Agung","amenity":"restaurant","internet_access":"wlan","name":"Maxi's House","opening_hours":"Mo-Su 10:00-22:00"}},{"type":"node","id":4150283093,"lat":-6.9072246,"lon":107.6203843,"tags":{"addr:street":"Jalan Lombok","amenity":"cafe","name":"Two Cents"}},{"type":"node","id":4169205936,"lat":-6.8805774,"lon":107.5942858,"tags":{"addr:city":"Cipedes","addr:housenumber":"23","addr:street":"Jalan Bungur","amenity":"restaurant","name":"Cafe Oz"}},{"type":"node","id":4169205937,"lat":-6.8799945,"lon":107.5940974,"tags":{"addr:city":"Cipedes","addr:housenumber":"29","addr:street":"Jalan Bungur","amenity":"restaurant","name":"District 29"}},{"type":"node","id":4171967226,"lat":-6.9185688,"lon":107.6095782,"tags":{"amenity":"bar","name":"Hangover"}},{"type":"node","id":4177773891,"lat":-6.8979598,"lon":107.6098119,"tags":{"addr:housenumber":"66","addr:street":"Tamansari","amenity":"cafe","name":"Kopi kamu"}},{"type":"node","id":4255671008,"lat":-6.8543222,"lon":107.5957541,"tags":{"addr:city":"Bandung","addr:housenumber":"#293-295","addr:postcode":"40559","addr:street":"Jalan Dr. Setiabudi","amenity":"restaurant","name":"Rumah Sosis"}},{"type":"node","id":4256116369,"lat":-6.8636195,"lon":107.6339512,"tags":{"addr:city":"Bandung","addr:housenumber":"28","addr:postcode":"40198","addr:street":"Jalan Lembah Pakar Timur","amenity":"cafe","name":"The Valley Bistro"}},{"type":"node","id":4256123806,"lat":-6.9079727,"lon":107.6239556,"tags":{"addr:city":"Bandung","addr:housenumber":"127","addr:postcode":"40114","addr:street":"Jalan R.E. Martadinata","amenity":"cafe","name":"Karnivor"}},{"type":"node","id":4256131112,"lat":-6.9190972,"lon":107.6153692,"tags":{"addr:city":"Bandung","addr:housenumber":"25","addr:postcode":"40112","addr:street":"Jalan Veteran","amenity":"restaurant","name":"Batagor Kingsley","payment:coins":"yes","payment:credit_cards":"no","payment:debit_cards":"no","payment:electronic_purses":"no","payment:notes":"yes","wheelchair":"limited"}},{"type":"node","id":4256137089,"lat":-6.8875201,"lon":107.6127573,"tags":{"addr:city":"Bandung","addr:housenumber":"1","addr:postcode":"40132","addr:street":"Jalan Dayang Sumbi","amenity":"restaurant","name":"Beehive Cafe & Eatery"}},{"type":"node","id":4256140907,"lat":-6.8869895,"lon":107.6126856,"tags":{"addr:city":"Bandung","addr:housenumber":"2","addr:postcode":"40132","addr:street":"Jalan Dayang Sumbi","amenity":"cafe","name":"Noah's Barn"}},{"type":"node","id":4256147603,"lat":-6.8650359,"lon":107.6265097,"tags":{"addr:city":"Bandung","addr:housenumber":"#5","addr:postcode":"40191","addr:street":"Jalan Raya Ranca Kendal Luhur","amenity":"cafe","name":"The Stone Cafe","name:en":"The Stone"}},{"type":"node","id":4256150971,"lat":-6.8676855,"lon":107.6277808,"tags":{"addr:city":"Bandung","addr:housenumber":"#8","addr:postcode":"40191","addr:street":"Jalan Ranca Kendal Luhur","amenity":"cafe","name":"Congo Gallery & Cafe","name:en":"Congo Gallery","opening_hours":"Su-Fr 07:00-23:00; Sa 07:00-00:00"}},{"type":"node","id":4256164272,"lat":-6.9010104,"lon":107.6123933,"tags":{"addr:city":"Bandung","addr:housenumber":"#48","addr:postcode":"40115","addr:street":"Jalan Ir. H. Juanda","amenity":"restaurant","cuisine":"japanese","name":"Hanamasa"}},{"type":"node","id":4256325794,"lat":-6.8820783,"lon":107.5997751,"tags":{"addr:city":"Bandung","addr:housenumber":"#43","addr:postcode":"40161","addr:street":"Jalan Dr. Setiabudi","amenity":"bar","name":"Sobers"}},{"type":"node","id":4256331317,"lat":-6.9061929,"lon":107.5981092,"tags":{"addr:city":"Bandung","addr:housenumber":"#3","addr:postcode":"40171","addr:street":"Jalan Dr. Cipto","amenity":"cafe","name":"Badung Cafe & Resto"}},{"type":"node","id":4258313505,"lat":-6.904728,"lon":107.6178751,"tags":{"addr:city":"Bandung","addr:housenumber":"#14","addr:postcode":"40115","addr:street":"Jalan Progo","amenity":"cafe","cuisine":"coffee_shop","name":"Hummingbird Eatery"}},{"type":"node","id":4258324190,"lat":-6.9173914,"lon":107.6133076,"tags":{"addr:city":"Bandung","addr:housenumber":"#9","addr:postcode":"40111","addr:street":"Jalan Sumatra","amenity":"restaurant","cuisine":"japanese","name":"Sushi Tei"}},{"type":"node","id":4258347459,"lat":-6.9284008,"lon":107.6240018,"tags":{"addr:city":"Bandung","addr:housenumber":"38","addr:postcode":"40263","addr:street":"Jalan Patuha","amenity":"restaurant","cuisine":"indonesian;sundanese","diet:vegetarian":"yes","name":"Dapoer Pandan Wangi"}},{"type":"node","id":4272686695,"lat":-6.9088982,"lon":107.6184895,"tags":{"addr:city":"Bandung","addr:housenumber":"#66","addr:postcode":"40113","addr:street":"Jalan Aceh","amenity":"cafe","name":"Eatboss Cafe"}},{"type":"node","id":4320535079,"lat":-6.9049365,"lon":107.6227839,"tags":{"addr:city":"Bandung, Jawa Barat","addr:housenumber":"12","addr:street":"Jl. Citarum, Bandung Wetan, Cihapit,","amenity":"restaurant","cuisine":"Glosis","name":"Glosis Restaurant"}},{"type":"node","id":4320575449,"lat":-6.9100039,"lon":107.6256233,"tags":{"addr:city":"Bandung, Jawa Barat","addr:housenumber":"112","addr:street":"Jln R.E. Martadinata (dekat taman pramuka)","alt_name":"Marugame Seimen","amenity":"fast_food","brand":"Marugame Seimen","brand:wikidata":"Q10877253","cuisine":"noodle","name":"Marugame Udon","takeaway":"yes"}},{"type":"node","id":4320599452,"lat":-6.9019264,"lon":107.6214808,"tags":{"addr:city":"Bandung, Jawa Barat","addr:housenumber":"64","addr:street":"Jalan Cisangkuy","amenity":"restaurant","name":"Winner Bratwurst"}},{"type":"node","id":4320607780,"lat":-6.917453,"lon":107.6132859,"tags":{"addr:city":"Bandung","addr:housenumber":"11","addr:street":"Jl. Sumatera","amenity":"cafe","cuisine":"regional","name":"Bober"}},{"type":"node","id":4320623921,"lat":-6.8672236,"lon":107.6060351,"tags":{"addr:city":"Bandung, Jawa Barat","addr:housenumber":"154","addr:street":"alan Ciumbuleuit","amenity":"restaurant","name":"Kepiting Chef Epi"}},{"type":"node","id":4320639466,"lat":-6.9164146,"lon":107.6138316,"tags":{"addr:city":"Bandung","addr:housenumber":"28","addr:street":"Jl. Sumatera","amenity":"cafe","cuisine":"cafe","name":"Brusselsspring"}},{"type":"node","id":4320643325,"lat":-6.916593,"lon":107.6138143,"tags":{"addr:city":"Bandung","addr:housenumber":"28","addr:street":"Jalan Sumatra","amenity":"cafe","name":"Soleluna"}},{"type":"node","id":4320644772,"lat":-6.8856245,"lon":107.5962474,"tags":{"addr:city":"Bandung, Jawa Barat","addr:housenumber":"157","addr:street":"Jl. Sukajadi","amenity":"restaurant","cuisine":"japanese","name":"Kedai Ling-Ling"}},{"type":"node","id":4320655631,"lat":-6.905489,"lon":107.6206005,"tags":{"addr:city":"Bandung","addr:housenumber":"2","addr:street":"Cimanuk","amenity":"cafe","cuisine":"coffee_shop","name":"Two Cents"}},{"type":"node","id":4320658157,"lat":-6.9653246,"lon":107.5794773,"tags":{"addr:city":"Kopo Square Sayati Margahayu, Jawa Barat","addr:housenumber":"45","addr:street":"Jl. Raya Kopo Bihbul","amenity":"restaurant","name":"Gubug Makan Mang Engking"}},{"type":"node","id":4320676328,"lat":-6.8611951,"lon":107.5953286,"tags":{"addr:city":"Bandung, Jawa Barat","addr:housenumber":"276","addr:street":"Jl. Setiabudhi","amenity":"restaurant","name":"The Heritage Kitchen & Gallery BDG"}},{"type":"node","id":4320683854,"lat":-6.9205607,"lon":107.614136,"tags":{"addr:city":"Sumur Bandung, Kota Bandung, Jawa Barat","addr:housenumber":"42","addr:street":"Jl. Naripan","amenity":"restaurant","name":"Wingz O Wingz Cafe And Resto"}},{"type":"node","id":4320691228,"lat":-6.9082315,"lon":107.624401,"tags":{"addr:city":"Bandung","addr:housenumber":"90","addr:street":"Jalan R.E. Martadinata","amenity":"restaurant","name":"Gaya Brasserie"}},{"type":"node","id":4320702955,"lat":-6.9047843,"lon":107.6165469,"tags":{"addr:city":"Bandung","addr:housenumber":"23","addr:street":"banda","amenity":"restaurant","name":"BonChon"}},{"type":"node","id":4320704774,"lat":-6.9065739,"lon":107.6158864,"tags":{"amenity":"restaurant","name":"Kedai Nasi Bajamba Kapau"}},{"type":"node","id":4320705419,"lat":-6.9291255,"lon":107.6196615,"tags":{"addr:city":"Bandung","addr:housenumber":"11A","addr:street":"Jl. Lodaya, Malabar, Lengkong","amenity":"cafe","name":"Little White Cafe","name:en":"Little White"}},{"type":"node","id":4320707953,"lat":-6.9036224,"lon":107.6209866,"tags":{"addr:city":"Bandung, Jawa Barat","addr:housenumber":"11","addr:street":"Jalan Cimanuk","amenity":"cafe","name":"Vanilla Kitchen & Wine"}},{"type":"node","id":4320710020,"lat":-6.8710838,"lon":107.6076398,"tags":{"addr:city":"Ciumbuleuit, Cidadap, Bandung, Jawa Barat","addr:housenumber":"18","addr:street":"Jl. Rancabentang","amenity":"restaurant","cuisine":"Family_Restaurant","name":"Waroeng Ethnic"}},{"type":"node","id":4320715786,"lat":-6.9046421,"lon":107.618747,"tags":{"addr:city":"Bandung","addr:housenumber":"22","addr:street":"Progo, Citarum","amenity":"cafe","cuisine":"coffee_shop","internet_access":"yes","name":"Kopi Progo","opening_hours":"Mo-Su 07:00-22:00","outdoor_seating":"no","phone":"+62 823-1717-1515","website":"https://maps.app.goo.gl/XpQSBsgo8WWMUXoB9"}},{"type":"node","id":4320722067,"lat":-6.9045688,"lon":107.6197076,"tags":{"addr:city":"Bandung Wetan","addr:housenumber":"33","addr:street":"Jl. Progo , Citarum","amenity":"cafe","name":"Giggle Box Cafe And Resto"}},{"type":"node","id":4320729128,"lat":-6.9055992,"lon":107.616762,"tags":{"addr:city":"Bandung","addr:housenumber":"63","addr:street":"L. L. R. E. Martadinata","amenity":"restaurant","name":"Warung Sangrai"}},{"type":"node","id":4320737157,"lat":-6.8742543,"lon":107.6192351,"tags":{"addr:city":"Bandung, Jawa Barat","addr:housenumber":"390","addr:street":"JL. Insinyur Haji Juanda","amenity":"restaurant","name":"Feast Restaurant","name:en":"Feast"}},{"type":"node","id":4320749637,"lat":-6.905619,"lon":107.6167643,"tags":{"addr:city":"Bandung","addr:housenumber":"32","addr:street":"Banda","amenity":"restaurant","name":"Balista Signature"}},{"type":"node","id":4320793364,"lat":-6.8810535,"lon":107.5983139,"tags":{"addr:city":"Bandung","addr:housenumber":"10","addr:street":"Jalan Karang sari","amenity":"restaurant","name":"Vermont Restaurant"}},{"type":"node","id":4320805756,"lat":-6.8799997,"lon":107.5981916,"tags":{"addr:city":"Bandung","addr:housenumber":"74","addr:street":"setiabudi","amenity":"restaurant","name":"Blackball"}},{"type":"node","id":4320810759,"lat":-6.8677255,"lon":107.5938724,"tags":{"addr:city":"bandung","addr:housenumber":"67","addr:street":"Jalan Dr. Setiabudi, Gegerkalong Sukasari","amenity":"restaurant","name":"Ikan Bakar Cianjur"}},{"type":"node","id":4320821104,"lat":-6.8755338,"lon":107.5966884,"tags":{"addr:city":"Bandung","addr:housenumber":"85","addr:street":"Jalan Setiabudi","amenity":"restaurant","name":"Ikan Pesmol Cianjur"}},{"type":"node","id":4320824982,"lat":-6.9167187,"lon":107.613811,"tags":{"addr:city":"Bandung","addr:housenumber":"20","addr:street":"Jalan Sumatra","amenity":"restaurant","name":"East and West Resto & Bar"}},{"type":"node","id":4320841831,"lat":-6.924126,"lon":107.6118868,"tags":{"addr:city":"Bandung, Jawa Barat","addr:housenumber":"45","addr:street":"Jl. Lengkong Besar","amenity":"restaurant","name":"Eatalia"}},{"type":"node","id":4320853779,"lat":-6.914155,"lon":107.6135284,"tags":{"addr:city":"Babakan Ciamis, Sumur Bandung, Kota Bandung, Jawa Barat","addr:housenumber":"31","addr:street":"Jl. Sumatera","amenity":"restaurant","name":"Praoe Seafood"}},{"type":"node","id":4320864438,"lat":-6.8791733,"lon":107.6009453,"tags":{"addr:city":"Hegarmanah, Cidadap, Bandung, Jawa Barat","addr:housenumber":"28","addr:street":"Jalan Hegarmanah","amenity":"restaurant","cuisine":"Japanese_Restaurant","name":"Saisan Japanese Cuisine"}},{"type":"node","id":4320870346,"lat":-6.9104912,"lon":107.6306581,"tags":{"addr:city":"Cihapit, Bandung Wetan, Bandung, Jawa Barat","addr:housenumber":"61","addr:street":"Jalan Anggrek","amenity":"restaurant","cuisine":"seafood_restaurant","name":"Parit 9 Seafood","name:en":"Parit 9"}},{"type":"node","id":4320923689,"lat":-6.9286472,"lon":107.5868038,"tags":{"addr:city":"Bandung","addr:housenumber":"249","addr:street":"Jalan PETA","amenity":"cafe","name":"Southville"}},{"type":"node","id":4320925493,"lat":-6.9151627,"lon":107.5982134,"tags":{"addr:city":"Bandung, Jawa Barat","addr:housenumber":"18","addr:street":"Jl. Pasirkaliki","amenity":"restaurant","name":"Grand Eastern"}},{"type":"node","id":4320928124,"lat":-6.9160557,"lon":107.6091519,"tags":{"addr:city":"Bandung, Jawa Barat","addr:housenumber":"90","addr:street":"Jl. Braga","amenity":"cafe","name":"Wiki Koffie"}},{"type":"node","id":4320934811,"lat":-6.8748841,"lon":107.6188318,"tags":{"addr:city":"Dago, Coblong, Kota Bandung, Jawa Barat","addr:housenumber":"345","addr:street":"Jl. Ir. H.Djuanda","amenity":"restaurant","name":"Thai Palace"}},{"type":"node","id":4320941004,"lat":-6.8810858,"lon":107.5986064,"tags":{"addr:city":"Bandung","addr:street":"Jl. Karangsari, Sukajadi","amenity":"restaurant","name":"Saka Bistro & Bar"}},{"type":"node","id":4321003454,"lat":-6.8826195,"lon":107.5964138,"tags":{"addr:city":"bandung","addr:housenumber":"371/181","addr:street":"Jl. Sukajadi Atas , Gegerkalong, Sukasari","amenity":"restaurant","name":"TJENDANA BISTRO","name:en":"Tjendana Bistro"}},{"type":"node","id":4321020958,"lat":-6.9039231,"lon":107.5989336,"tags":{"addr:city":"bandung","addr:housenumber":"5","addr:street":"Jl. Dr. Rajiman , Pasir Kaliki, Cicendo, Kota Bandung,","amenity":"restaurant","cuisine":"korean","name":"Bornga"}},{"type":"node","id":4321036011,"lat":-6.9204002,"lon":107.6002017,"tags":{"addr:city":"Bandung","addr:housenumber":"91","addr:street":"Capitol Plaza, Jl. Jendral Sudirman, Karanganyar, Astanaanyar","amenity":"restaurant","name":"sudirman street food"}},{"type":"node","id":4321049832,"lat":-6.9216518,"lon":107.6003966,"tags":{"addr:city":"Bandung","addr:housenumber":"152","addr:street":"Jl. Cibadak, Karanganyar, Astanaanyar","amenity":"restaurant","name":"Cibadak Food Market"}},{"type":"node","id":4322633063,"lat":-6.9052965,"lon":107.6138859,"tags":{"addr:city":"Kota Bandung, Jawa Barat","addr:housenumber":"3","addr:street":"Jl. Bahureksa, Bandung Wetan","amenity":"cafe","cuisine":"coffee_shop","name":"Everjoy Coffee and Cafe"}},{"type":"node","id":4322644193,"lat":-6.8679701,"lon":107.6286286,"tags":{"addr:city":"Bandung, Jawa Barat","addr:housenumber":"17","addr:street":"Jl. Ranca Kendal Luhur","amenity":"restaurant","name":"Boemi Joglo","opening_hours":"Mo-Su 10:00-22:00","phone":"+62 22 2501344"}},{"type":"node","id":4322665307,"lat":-6.8631564,"lon":107.6288477,"tags":{"addr:city":"Bandung, Jawa Barat","addr:housenumber":"33","addr:street":"Jl. Bukit Pakar Timur","amenity":"restaurant","name":"Sierra Cafe & Lounge"}},{"type":"node","id":4322668890,"lat":-6.9185493,"lon":107.6096852,"tags":{"addr:city":"Bandung","addr:housenumber":"34","addr:street":"Jalan Braga","amenity":"restaurant","cuisine":"chicken","name":"Ayam Geprek Pangeran"}},{"type":"node","id":4322669484,"lat":-6.8797792,"lon":107.5984107,"tags":{"addr:city":"Bandung, Jawa Barat","addr:housenumber":"53","addr:street":"Jalan Doktor Setiabudi","amenity":"restaurant","name":"Porto Restaurant"}},{"type":"node","id":4322674972,"lat":-6.8810021,"lon":107.5982247,"tags":{"addr:city":"Bandung, Kota Bandung, Jawa Barat","addr:street":"Jl. Karangsari","amenity":"restaurant","name":"Jubilare Dine and Wine"}},{"type":"node","id":4322677519,"lat":-6.9097236,"lon":107.5977039,"tags":{"addr:city":"Bandung, Jawa Barat","addr:housenumber":"67","addr:street":"Jl. Pasirkaliki","amenity":"restaurant","cuisine":"indonesian","name":"Rijsttafel Resto"}},{"type":"node","id":4322680459,"lat":-6.9379902,"lon":107.6193999,"tags":{"addr:city":"Ciateul, Regol, Pasirluyu, Bandung, Kota Bandung, Jawa Barat","addr:housenumber":"22","addr:street":"Jl. BKR","amenity":"restaurant","cuisine":"cake","name":"The Dreams Cake"}},{"type":"node","id":4322684148,"lat":-6.9095532,"lon":107.5976897,"tags":{"addr:city":"Bandung, Jawa Barat","addr:housenumber":"71","addr:street":"Jl. Pasirkaliki","amenity":"restaurant","cuisine":"Noodle_Shop","name":"Fuku Ramen"}},{"type":"node","id":4322688658,"lat":-6.905355,"lon":107.6104147,"tags":{"addr:city":"Dago, Tamansari, Bandung, Kota Bandung, Jawa Barat","addr:housenumber":"15","addr:street":"Jl. Ir. H. Djuanda","amenity":"restaurant","cuisine":"cake_shop","name":"THE HARVEST DAGO","name:en":"The Harvest"}},{"type":"node","id":4326457996,"lat":-6.9010768,"lon":107.6097423,"tags":{"addr:city":"Bandung, Jawa Barat","addr:housenumber":"10","addr:street":"Jl. Sawunggaling, Tamansari","amenity":"cafe","name":"Chingu Cafe","name:it":"Chingu"}},{"type":"node","id":4326481406,"lat":-6.9153616,"lon":107.5982452,"tags":{"addr:city":"Bandung, Jawa Barat","addr:housenumber":"16","addr:street":"Jalan Pasirkaliki, Kompleks Ruko Grand Eastern, Kebon Jeruk, Andir,","amenity":"restaurant","name":"Kenken Bigul Kitchen"}},{"type":"node","id":4326486305,"lat":-6.9072846,"lon":107.6190397,"tags":{"addr:city":"Bandung","addr:housenumber":"#18","addr:street":"Jl. Ambon, Citarum, Bandung Wetan","amenity":"restaurant","name":"Hanken Kitchen"}},{"type":"node","id":4326487152,"lat":-6.9124832,"lon":107.5992553,"tags":{"addr:city":"Bandung","addr:street":"Jalan Kebon Kawung, Pasirkaliki, Cicendo, Pasir Kaliki, Cicendo","amenity":"restaurant","name":"Kandang Ayam Kebon Kawung"}},{"type":"node","id":4326490087,"lat":-6.9124458,"lon":107.5983485,"tags":{"addr:city":"Bandung","addr:housenumber":"45-47","addr:street":"Jalan Kebon Kawung","amenity":"restaurant","name":"Mandarin Restaurant","name:zh":"华人菜馆","payment:coins":"yes","payment:notes":"yes","phone":"+62224266250"}},{"type":"node","id":4326505745,"lat":-6.9123909,"lon":107.6011252,"tags":{"addr:city":"Bandung","addr:housenumber":"28","addr:street":"Jalan Kebon Kawung , Pasirkaliki, Cicendo","amenity":"restaurant","name":"Warung Nasi Ampera"}},{"type":"node","id":4326510048,"lat":-6.9125398,"lon":107.6038437,"tags":{"addr:city":"Bandung","addr:housenumber":"2","addr:street":"Jl. Kebon Kawung","amenity":"restaurant","name":"Red Tulip Resto Restoran","name:en":"Red Tulip"}},{"type":"node","id":4326555372,"lat":-6.9043132,"lon":107.6237201,"tags":{"addr:city":"Bandung, Jawa Barat","addr:housenumber":"47","addr:street":"Jl. Tm. Cibeunying Sel.","amenity":"restaurant","cuisine":"regional","name":"Roemah Nenek"}},{"type":"node","id":4326595197,"lat":-6.9111906,"lon":107.6271109,"tags":{"addr:city":"Bandung","addr:housenumber":"128A","addr:street":"Jalan Riau","amenity":"restaurant","cuisine":"mexican_restaurant","name":"Perky Pedro: Comidas Y Bebidas Planet Daging","name:en":"Perky Pedro"}},{"type":"node","id":4326600885,"lat":-6.8775851,"lon":107.5895741,"tags":{"addr:city":"Bandung","addr:housenumber":"52A","addr:street":"Jalan Ir Sutami","amenity":"restaurant","name":"Myeong Ga"}},{"type":"node","id":4326603897,"lat":-6.9154611,"lon":107.629507,"tags":{"addr:city":"bandung, Jawa Barat","addr:street":"Jl. L. L. RE.Martadinata","amenity":"restaurant","cuisine":"Ramen_Restaurant","name":"Hakata Ikkousha"}},{"type":"node","id":4326604852,"lat":-6.8628549,"lon":107.6295709,"tags":{"addr:city":"Ciburial, Cimenyan, Ciburial, Cimenyan, Bandung, Jawa Barat","addr:housenumber":"19","addr:street":"Jalan Bukit Pakar Timur","amenity":"restaurant","name":"Cocorico Cafe and Resto"}},{"type":"node","id":4326610522,"lat":-6.9159462,"lon":107.6678531,"tags":{"addr:city":", Antapani Wetan, Arcamanik, Kota Bandung, Jawa Barat","addr:housenumber":"324","addr:postcode":"40291","addr:street":"Jalan Terusan Jakarta","amenity":"restaurant","name":"Bakso Barbel Agung Hercules","opening_hours":"Su-Fr 10:30-20:30; Sa 10:30-21:00"}},{"type":"node","id":4326619590,"lat":-6.9018086,"lon":107.5973555,"tags":{"addr:city":"Bandung, Jawa Barat","addr:street":"Jl. Pasirkaliki","amenity":"restaurant","cuisine":"bakery","name":"Anata Cake & Bakery"}},{"type":"node","id":4326640119,"lat":-6.9211852,"lon":107.6170492,"tags":{"addr:city":"Bandung","addr:housenumber":"92C","addr:street":"Jl. Naripan","amenity":"restaurant","name":"Kedai Nyonya Rumah"}},{"type":"node","id":4326646566,"lat":-6.9025783,"lon":107.6097557,"tags":{"addr:city":"Taman Sari, Bandung Wetan, Bandung, Jawa Barat","addr:housenumber":"1","addr:street":"Jalan Ranggagading","amenity":"cafe","name":"Kupu Bistro"}},{"type":"node","id":4326747446,"lat":-6.889864,"lon":107.5969999,"tags":{"addr:city":"Bandung","addr:housenumber":"163","addr:street":"JL Sukajadi , Pasteur, Sukajadi","amenity":"restaurant","name":"Tomodachi Restaurant","name:en":"Tomodachi"}},{"type":"node","id":4326767332,"lat":-6.9024057,"lon":107.6143369,"tags":{"addr:city":"Bandung, Jawa Barat","addr:housenumber":"40","addr:street":"Jl. Trunojoyo , Citarum","amenity":"cafe","name":"ETC Etcetera"}},{"type":"node","id":4326775715,"lat":-6.9011504,"lon":107.6134266,"tags":{"addr:city":"Bandung, Jawa Barat","addr:housenumber":"10","addr:street":"Jl. Maulana Yusuf , Citarum","amenity":"restaurant","name":"Blackpepper resto & cafe"}},{"type":"node","id":4326781690,"lat":-6.900332,"lon":107.6136806,"tags":{"addr:city":"Bandung, Jawa Barat","addr:housenumber":"7","addr:street":"Jalan Diponegoro","amenity":"cafe","cuisine":"coffee_shop","internet_access":"yes","internet_access:fee":"no","name":"Oldbens Cafe","opening_hours":"Mo-Su 08:00-22:00","phone":"+62 878-2426-9298"}},{"type":"node","id":4326815228,"lat":-6.9051622,"lon":107.6095953,"tags":{"addr:city":"Bandung","addr:housenumber":"48","addr:street":"Jl. Purnawarman","amenity":"restaurant","name":"Lumiere Bistro and Art Gallery"}},{"type":"node","id":4326815822,"lat":-6.8998099,"lon":107.6122025,"tags":{"addr:city":"Bandung, Jawa Barat","addr:housenumber":"4","addr:street":"Jalan Sulanjana, Bandung Wetan","amenity":"bar","name":"Shelter Bar","name:en":"Shelter"}},{"type":"node","id":4326817355,"lat":-6.9127336,"lon":107.6289424,"tags":{"addr:city":"Bandung","addr:housenumber":"201","addr:street":"Jl. L. L. RE.Martadinata","amenity":"restaurant","name":"Sapi Unggul Indonesia"}},{"type":"node","id":4326817808,"lat":-6.9000351,"lon":107.6115953,"tags":{"addr:city":"Bandung, Jawa Barat","addr:housenumber":"9","addr:street":"Jl. Sulanjana , Tamansari, Bandung Wetan","amenity":"restaurant","name":"Javan Steak"}},{"type":"node","id":4326818793,"lat":-6.9022555,"lon":107.6044599,"tags":{"addr:city":"Bandung, Jawa Barat","addr:housenumber":"56A","addr:street":"Jl. Cihampelas","amenity":"restaurant","name":"Warunk Upnormal"}},{"type":"node","id":4326822673,"lat":-6.9118683,"lon":107.5779293,"tags":{"addr:city":"Bandung, Jawa Barat","addr:housenumber":"66","addr:street":"Jalan Garuda","amenity":"restaurant","name":"Yellow Truck Coffee","name:en":"Yellow Truck"}},{"type":"node","id":4326823777,"lat":-6.9130997,"lon":107.6262194,"tags":{"addr:city":"Merdeka, Sumur Bandung, Kota Bandung, Jawa Barat","addr:housenumber":"55","addr:street":"Jl. Gandapura","amenity":"restaurant","name":"The Larder"}},{"type":"node","id":4326829300,"lat":-6.8999,"lon":107.611426,"tags":{"addr:city":"Bandung, Jawa Barat","addr:street":"Jl. Sulanjana","amenity":"restaurant","name":"NINE'SQUARE Bar&Resto","name:en":"Nine Square"}},{"type":"node","id":4326832448,"lat":-6.8926493,"lon":107.6144085,"tags":{"amenity":"restaurant","cuisine":"patisserie","name":"Lucio Luciano Patisseries","name:en":"Lucio Luciano"}},{"type":"node","id":4326833521,"lat":-6.8959401,"lon":107.6031687,"tags":{"addr:city":"Cipaganti, Coblong, Kota Bandung, Jawa Barat","addr:housenumber":"5","addr:street":"Jl. Prof. Eyckman","amenity":"restaurant","name":"Love Meat Tender"}},{"type":"node","id":4326834404,"lat":-6.8997957,"lon":107.6115847,"tags":{"addr:city":"Bandung","addr:housenumber":"14","addr:street":"JL Sulanjana","amenity":"restaurant","name":"Legian Terrace Cafe","name:en":"Legian Terrace"}},{"type":"node","id":4326837928,"lat":-6.9051254,"lon":107.6223404,"tags":{"addr:city":"Cihapit, Bandung Wetan, Bandung, Jawa Barat","addr:housenumber":"10","addr:street":"Jl. Citarum","amenity":"restaurant","name":"Le Marly"}},{"type":"node","id":4326840306,"lat":-6.9016748,"lon":107.6250691,"tags":{"addr:city":"Cihapit, Bandung Wetan, Bandung, Jawa Barat","addr:housenumber":"34","addr:street":"Jalan Citarum","amenity":"restaurant","name":"RM Alas Daun"}},{"type":"node","id":4326849413,"lat":-6.9296528,"lon":107.616333,"tags":{"addr:city":"Lengkong, Kota Bandung, Jawa Barat","addr:housenumber":"115A","addr:street":"Jl. Karapitan","amenity":"bar","name":"Cafe Eat Well","name:en":"Eat Well"}},{"type":"node","id":4326855496,"lat":-6.9268716,"lon":107.6193988,"tags":{"addr:city":"Burangrang, Lengkong, Kota Bandung, Jawa Barat","addr:housenumber":"38","addr:street":"Jl. Burangrang","amenity":"restaurant","cuisine":"views_Indonesian_Restaurant","name":"Bakso Boedjangan"}},{"type":"node","id":4326858393,"lat":-6.8548349,"lon":107.5959097,"tags":{"addr:city":"Isola, Sukajadi, Kota Bandung, Jawa Barat","addr:housenumber":"49","addr:street":"Jl. Setiabudhi","amenity":"restaurant","cuisine":"korean","name":"Seorae Setiabudi Bandung"}},{"type":"node","id":4326871085,"lat":-6.8802525,"lon":107.5806276,"tags":{"addr:city":"Sukasari, Bandung, Jawa Barat","addr:housenumber":"23","addr:street":"Jalan Terusan Prof. Dr Sutami Kav.","amenity":"restaurant","name":"Old Ben's Garage & Coffee"}},{"type":"node","id":4326872989,"lat":-6.905339,"lon":107.6135667,"tags":{"addr:city":"Bandung Wetan, Jawa Barat","addr:housenumber":"1","addr:street":"Jalan Bahureksa","amenity":"restaurant","name":"Kane Pizzeria"}},{"type":"node","id":4326873539,"lat":-6.872527,"lon":107.5932983,"tags":{"addr:city":"Gegerkalong, Sukasari, Bandung City, West Java","addr:housenumber":"11B","addr:street":"Jl. Budi Luhur I","amenity":"cafe","name":"Ludwick Café"}},{"type":"node","id":4326876027,"lat":-6.9204024,"lon":107.6130499,"tags":{"addr:city":"Kebon Pisang, Bandung, Jawa Barat","addr:housenumber":"30","addr:street":"Jalan Naripan","amenity":"cafe","name":"Uncle's Storage"}},{"type":"node","id":4326877060,"lat":-6.884257,"lon":107.5968352,"tags":{"addr:city":"Pasteur, Sukajadi, Kota Bandung, Jawa Barat","addr:housenumber":"35","addr:street":"Jl. Sirnamanah","amenity":"cafe","name":"Monsoon Cafe","name:en":"Monsoon"}},{"type":"node","id":4326880572,"lat":-6.899456,"lon":107.6106804,"tags":{"addr:city":"Bandung, Jawa Barat","addr:housenumber":"30","addr:street":"Jl. Sulanjana , Tamansari, Bandung Wetan","amenity":"restaurant","name":"Bubur Ayam Mang H. Oyo"}},{"type":"node","id":4326883566,"lat":-6.9164865,"lon":107.6136019,"tags":{"addr:city":"Bandung, Jawa Barat","addr:housenumber":"19","addr:street":"Jl. Sumatera","amenity":"restaurant","name":"Indischetafel Resto"}},{"type":"node","id":4326884850,"lat":-6.8997615,"lon":107.6104078,"tags":{"addr:city":"Bandung, Jawa Barat","addr:street":"Jl. Sulanjana, Tamansari, Bandung Wetan","amenity":"cafe","name":"Hoppers"}},{"type":"node","id":4326886137,"lat":-6.8869718,"lon":107.603936,"tags":{"addr:city":"Cipaganti, Coblong, Bandung, Jawa Barat","addr:housenumber":"205","addr:street":"Jl. Cihampelas","amenity":"restaurant","cuisine":"indonesian","name":"Giannis"}},{"type":"node","id":4326888054,"lat":-6.8996949,"lon":107.610294,"tags":{"addr:city":"Bandung, Jawa Barat","addr:street":"Jl. Sulanjana, Tamansari, Bandung Wetan","amenity":"cafe","name":"Kedai Persib"}},{"type":"node","id":4326893971,"lat":-6.8996202,"lon":107.6099403,"tags":{"addr:city":"Bandung, Jawa Barat","addr:housenumber":"19","addr:street":"Jl. Sulanjana","amenity":"bar","name":"Halfway Bar & Lounge"}},{"type":"node","id":4327152529,"lat":-6.8815585,"lon":107.5757293,"tags":{"addr:city":"Bandung","addr:housenumber":"1","addr:street":"Jalan Terusan Perintis","amenity":"restaurant","name":"Eerma'sm Kitchen"}},{"type":"node","id":4327153848,"lat":-6.9639806,"lon":107.5772329,"tags":{"addr:city":"Bandung, Jawa Barat","addr:street":"Jl. Raya Kopo","alt_name":"Dunkin' Donuts","amenity":"fast_food","brand":"Dunkin'","brand:wikidata":"Q847743","brand:wikipedia":"en:Dunkin' Donuts","cuisine":"donut;coffee_shop","name":"Dunkin'","takeaway":"yes"}},{"type":"node","id":4327160050,"lat":-6.9639551,"lon":107.5772567,"tags":{"addr:city":"Bandung, Jawa Barat","addr:street":"Jl. Raya Kopo","amenity":"restaurant","name":"Holland Bakery"}},{"type":"node","id":4327165751,"lat":-6.9656134,"lon":107.5763951,"tags":{"addr:city":"Bandung, Jawa Barat","addr:street":"Jalan Kopo","amenity":"restaurant","name":"Donat Madu"}},{"type":"node","id":4327170898,"lat":-6.9678738,"lon":107.575379,"tags":{"addr:city":"Bandung, Jawa Barat","addr:housenumber":"111","addr:street":"Jl. Raya Kopo","amenity":"restaurant","name":"Kartika Sari"}},{"type":"node","id":4327188288,"lat":-6.9635574,"lon":107.5653165,"tags":{"addr:city":"Bandung","addr:housenumber":"7","addr:street":"Komplek Taman Kopo Indah I Blok. Q","amenity":"restaurant","name":"Ozt Cafe and Steakhouse"}},{"type":"node","id":4327190059,"lat":-6.8768509,"lon":107.604058,"tags":{"addr:city":"Bandung","addr:housenumber":"129","addr:street":"No., Jl. Ciumbuleuit","amenity":"restaurant","name":"CAWIT (Cabe Rawit)","name:it":"Cawit"}},{"type":"node","id":4327190453,"lat":-6.9639867,"lon":107.5644016,"tags":{"addr:city":"Bandung, Jawa Barat","addr:street":"taman kopo","amenity":"restaurant","name":"Bakmie Aloi","name:en":"Bakmi yahudi"}},{"type":"node","id":4327193261,"lat":-6.9640893,"lon":107.5629329,"tags":{"addr:city":"Bandung, Jawa Barat","addr:street":"Ruko Taman Kopo Indah Blok A","amenity":"fast_food","name":"Aneka Juice"}},{"type":"node","id":4327193263,"lat":-6.963849,"lon":107.5631391,"tags":{"addr:city":"Bandung, Jawa Barat","addr:street":"Jl. Taman Kopo Indah I","amenity":"cafe","name":"Coffee Time"}},{"type":"node","id":4327193341,"lat":-6.9642277,"lon":107.563213,"tags":{"addr:city":"Bandung, Jawa Barat","addr:housenumber":"3","addr:street":"Ruko Taman Kopo Indah Blok A1","amenity":"fast_food","name":"PHD Taman Kopo Indah"}},{"type":"node","id":4327198081,"lat":-6.9617036,"lon":107.5584851,"tags":{"addr:city":"Bandung, Jawa Barat","addr:street":"Komplek Taman Kopo Indah 2 Blok 5","amenity":"restaurant","name":"Richeese Factory"}},{"type":"node","id":4327205530,"lat":-6.9617471,"lon":107.5591707,"tags":{"addr:city":"Bandung, Jawa Barat","addr:street":"Jl. Taman Kopo Indah 2","amenity":"cafe","name":"Gudang Kopi"}},{"type":"node","id":4327206126,"lat":-6.9597287,"lon":107.5605413,"tags":{"addr:city":"Bandung","addr:housenumber":"22","addr:street":"Jalan Taman Kopo Indah 2","amenity":"restaurant","name":"Coco Suki"}},{"type":"node","id":4327207872,"lat":-6.9574629,"lon":107.5615028,"tags":{"addr:city":"Bandung","addr:housenumber":"4","addr:street":"Jalan Taman Kopo Indah 2 Ruko 1A","amenity":"restaurant","name":"D'plate"}},{"type":"node","id":4327209170,"lat":-6.9568387,"lon":107.561661,"tags":{"addr:city":"Bandung","addr:housenumber":"5","addr:street":"Jl. Taman Kopo Indah 2 blok 1A","amenity":"restaurant","name":"Star Kitchen"}},{"type":"node","id":4327210184,"lat":-6.956099,"lon":107.5615567,"tags":{"addr:city":"Bandung","addr:housenumber":"15","addr:street":"Jalan Taman Kopo Indah 2 Blok 1B","amenity":"restaurant","cuisine":"chinese","name":"Nasi Campur Bintang Baru"}},{"type":"node","id":4327214690,"lat":-6.9538094,"lon":107.5623899,"tags":{"addr:city":"Bandung","addr:street":"Jl. Taman Kopo Indah 2","amenity":"restaurant","cuisine":"chinese","name":"Asia Bagus"}},{"type":"node","id":4327219160,"lat":-6.9607296,"lon":107.5570812,"tags":{"addr:city":"Bandung, Jawa Barat","addr:housenumber":"18","addr:street":"l. Taman Kopo Indah III Blok A","amenity":"restaurant","name":"Ayam Goreng Tulang Lunak Rahayu - Be Yoghurt and Juice"}},{"type":"node","id":4327225479,"lat":-6.9628238,"lon":107.5558687,"tags":{"addr:city":"Bandung","addr:street":"Jl. Taman Kopo Indah III","amenity":"restaurant","name":"Kwetiaw Bakar"}},{"type":"node","id":4327227263,"lat":-6.9650043,"lon":107.5548327,"tags":{"addr:city":"Bandung","addr:street":"Jl. Taman Kopo Indah III","amenity":"restaurant","name":"Iga Bakar Mang Opan"}},{"type":"node","id":4327244823,"lat":-6.9072065,"lon":107.5668787,"tags":{"addr:city":"Bandung","addr:housenumber":"51","addr:street":"Jalan Cibeureum","amenity":"cafe","name":"Ngopi Doeloe"}},{"type":"node","id":4327246099,"lat":-6.8979361,"lon":107.592867,"tags":{"addr:city":"Bandung","addr:housenumber":"37","addr:street":"Jalan Dr. Djunjunan , Pamoyanan, Cicendo","amenity":"cafe","name":"Kedai Pantai Timur"}},{"type":"node","id":4327947541,"lat":-6.8816289,"lon":107.5816811,"tags":{"addr:city":"Bandung, Jawa Barat","addr:housenumber":"8D","addr:street":"Jl. Surya Sumantri","amenity":"restaurant","cuisine":"pizza","name":"Dominos Pizza"}},{"type":"node","id":4327947863,"lat":-6.8810961,"lon":107.581227,"tags":{"addr:city":"Bandung, Jawa Barat","addr:housenumber":"5C","addr:street":"Jl. Surya Sumantri","amenity":"restaurant","name":"Kedai Waka Waka"}},{"type":"node","id":4327951247,"lat":-6.8851859,"lon":107.5815401,"tags":{"addr:city":"Bandung","addr:housenumber":"84A","addr:street":"Jalan Prof. Drg. Surya Sumantri","amenity":"cafe","name":"Take Ichi Japanese Cafe","name:en":"Take Ichi"}},{"type":"node","id":4327953327,"lat":-6.8634983,"lon":107.6339147,"tags":{"addr:city":"Dago Pakar, Ciburial, Cimenyan, Bandung, Jawa Barat","addr:housenumber":"28","addr:street":"Jl. Lembah Pakar Timur","amenity":"restaurant","name":"Directions The Valley Resort Hotel","name:en":"Directions The Valley"}},{"type":"node","id":4327975257,"lat":-6.9202649,"lon":107.599052,"tags":{"addr:city":"Bandung, Jawa Barat","addr:housenumber":"151-153","addr:street":"Jl. Jendral Sudirman","amenity":"restaurant","name":"Hongkong Restaurant","name:en":"Hongkong"}},{"type":"node","id":4327978185,"lat":-6.8919365,"lon":107.6175378,"tags":{"addr:city":"Bandung, Jawa Barat","addr:housenumber":"51","addr:street":"Jl. Dipatiukur","amenity":"restaurant","name":"Nasi Goreng Mafia"}},{"type":"node","id":4327980993,"lat":-6.9489967,"lon":107.6234324,"tags":{"addr:city":"Bandung","addr:housenumber":"479B","addr:street":"Jl. Soekarno - Hatta","amenity":"restaurant","cuisine":"Restaurant_or_Cafe","name":"Sari Sunda Restaurant"}},{"type":"node","id":4327985397,"lat":-6.8891532,"lon":107.582279,"tags":{"addr:city":"Bandung","addr:housenumber":"36D","addr:street":"Jl. Surya Sumantri","amenity":"cafe","name":"Sugar Rush"}},{"type":"node","id":4327989798,"lat":-6.8958519,"lon":107.5893761,"tags":{"addr:city":"Bandung","addr:housenumber":"107","addr:street":"Jl. Dr. Djunjunan","amenity":"restaurant","cuisine":"indonesian","name":"Saung Kabayan"}},{"type":"node","id":4327993521,"lat":-6.9021588,"lon":107.5975823,"tags":{"addr:city":"Bandung, Jawa Barat","addr:housenumber":"170","addr:street":"Jalan Pasirkaliki","amenity":"restaurant","name":"Kafetaria 170","opening_hours":"Mo-Fr, Su 07:00-21:00; Sa 07:00-22:00","website":"http://kafetaria170.com/"}},{"type":"node","id":4327994060,"lat":-6.90137,"lon":107.5990705,"tags":{"addr:city":"Bandung, Jawa Barat","addr:street":"Jl. Dr. Otten","amenity":"cafe","name":"Otten Inn & Viit Cafe"}},{"type":"node","id":4327995101,"lat":-6.9027733,"lon":107.6026978,"tags":{"addr:city":"Bandung, Jawa Barat","addr:housenumber":"14","addr:street":"Jl. Cipaganti","amenity":"restaurant","name":"Melbourne Kitchen"}},{"type":"node","id":4327999964,"lat":-6.9067623,"lon":107.5978417,"tags":{"addr:city":"Bandung","addr:housenumber":"65","addr:street":"Jalan Pajajaran","alt_name":"Kentucky Fried Chicken","amenity":"fast_food","brand":"KFC","brand:wikidata":"Q524757","brand:wikipedia":"en:KFC","cuisine":"chicken","name":"KFC","opening_hours":"24/7","takeaway":"yes"}},{"type":"node","id":4328013345,"lat":-6.8968528,"lon":107.6037639,"tags":{"addr:city":"Bandung","addr:housenumber":"123","addr:street":"Jl. Cihampelas","amenity":"restaurant","cuisine":"indonesian","name":"Kambing Bakar Cairo"}},{"type":"node","id":4328025912,"lat":-6.9309098,"lon":107.6262291,"tags":{"addr:city":"Bandung","addr:housenumber":"91","addr:street":"Jl. Pelajar Pejuang 45","amenity":"cafe","name":"Milan Cafe"}},{"type":"node","id":4328027160,"lat":-6.9330981,"lon":107.6254099,"tags":{"addr:city":"Bandung","addr:housenumber":"70","addr:street":"JL. Pelajar Pejuang 45,","amenity":"restaurant","name":"Abuba Steak"}},{"type":"node","id":4328028634,"lat":-6.9352035,"lon":107.6247857,"tags":{"addr:city":"Bandung","addr:housenumber":"121","addr:street":"JL. Pelajar Pejuang 45","amenity":"restaurant","name":"Okoh Japanese Restaurant"}},{"type":"node","id":4328031796,"lat":-6.9257329,"lon":107.6201892,"tags":{"addr:city":"Bandung","addr:housenumber":"2","addr:street":"Jl. Halimun","amenity":"restaurant","name":"Hungry Station"}},{"type":"node","id":4328069510,"lat":-6.9120068,"lon":107.5960795,"tags":{"addr:city":"Bandung","addr:housenumber":"#16","addr:street":"Jalan Kesatriaan , Arjuna, Cicendo","amenity":"cafe","name":"Magic Wok Tavern"}},{"type":"node","id":4328076556,"lat":-6.9109614,"lon":107.5979568,"tags":{"addr:city":"Bandung","addr:housenumber":"65","addr:street":"Jalan Pasir Kaliki","amenity":"cafe","name":"Pokatiam"}},{"type":"node","id":4328084639,"lat":-6.9106044,"lon":107.5979615,"tags":{"addr:city":"Bandung","addr:housenumber":"70","addr:street":"Jalan HOS. Tjokroaminoto","amenity":"restaurant","name":"Lomie Karuhun"}},{"type":"node","id":4328085896,"lat":-6.9104931,"lon":107.5979568,"tags":{"addr:city":"Bandung","addr:housenumber":"72","addr:street":"Jalan HOS. Tjokroaminoto","amenity":"restaurant","name":"Strudel's Signature"}},{"type":"node","id":4328090099,"lat":-6.9093991,"lon":107.597875,"tags":{"addr:city":"Bandung, Jawa Barat","addr:housenumber":"94","addr:street":"Jl. Pasirkaliki","amenity":"restaurant","name":"Rumah Makan Santung"}},{"type":"node","id":4328092026,"lat":-6.908961,"lon":107.5978563,"tags":{"addr:city":"Bandung, Jawa Barat","addr:housenumber":"96","addr:street":"JL. Pasir Kaliki","amenity":"restaurant","name":"Gepuk Ny. Ong"}},{"type":"node","id":4328100799,"lat":-6.9129657,"lon":107.597758,"tags":{"addr:city":"Bandung","addr:housenumber":"41-43","addr:street":"Hilton Bandung Hotel, JL. Hos Tjokroaminoto, Arjuna","amenity":"restaurant","name":"Magma Lounge"}},{"type":"node","id":4328103422,"lat":-6.9156161,"lon":107.5982369,"tags":{"addr:city":"Bandung, Jawa Barat","addr:housenumber":"10","addr:street":"Jl. Pasirkaliki, Kb. Jeruk, Andir","amenity":"restaurant","name":"Ayam Goreng Tempo Doeloe"}},{"type":"node","id":4328109076,"lat":-6.9162559,"lon":107.597541,"tags":{"addr:city":"Bandung, Jawa Barat","addr:housenumber":"120","addr:street":"Jl. Kb. Jati , Kb. Jeruk, Andir","amenity":"restaurant","name":"Tjiang Restaurant","name:en":"Tjiang"}},{"type":"node","id":4328112767,"lat":-6.9164135,"lon":107.5968616,"tags":{"addr:city":"Bandung, Jawa Barat","addr:housenumber":"177","addr:street":"Jalan Kebon Jati","amenity":"restaurant","name":"Bubur Ahong"}},{"type":"node","id":4328122520,"lat":-6.9172755,"lon":107.5981687,"tags":{"addr:city":"Bandung, Jawa Barat","addr:housenumber":"56","addr:street":"Jalan Gardujati, Andir","amenity":"restaurant","name":"He Fu Restaurant","name:en":"He Fu"}},{"type":"node","id":4328124994,"lat":-6.9173543,"lon":107.5981524,"tags":{"addr:city":"Bandung, Jawa Barat","addr:housenumber":"81-83","addr:street":"Jl. Gardujati , Kebon Jeruk","amenity":"restaurant","name":"Ming Yen Asli"}},{"type":"node","id":4328126842,"lat":-6.9182827,"lon":107.5931426,"tags":{"addr:city":"Bandung","addr:housenumber":"38","addr:street":"Gg. Sukamanah","amenity":"restaurant","cuisine":"seafood","name":"Seafood Mas Gondrong"}},{"type":"node","id":4328127549,"lat":-6.919323,"lon":107.5929285,"tags":{"addr:city":"Bandung","addr:housenumber":"1","addr:street":"Jl. Kelenteng","amenity":"restaurant","name":"Bebek Kelenteng Restaurant","name:en":"Bebek Kelenteng"}},{"type":"node","id":4328129180,"lat":-6.918928,"lon":107.5889867,"tags":{"addr:city":"Bandung","addr:housenumber":"451","addr:street":"Jalan Jendral Sudirman","amenity":"restaurant","name":"Bubur Ayam Pa' Otong"}},{"type":"node","id":4328129194,"lat":-6.917344,"lon":107.5983109,"tags":{"addr:city":"Bandung, Jawa Barat","addr:housenumber":"8B","addr:street":"Jl. Gardujati , Kb. Jeruk, Andir","amenity":"cafe","name":"Yoss Coffe","name:en":"Yoss"}},{"type":"node","id":4328137008,"lat":-6.9370934,"lon":107.5954123,"tags":{"addr:city":"Bandung","addr:housenumber":"10","addr:street":"Jalan PETA","amenity":"restaurant","name":"Mie Pangsit Pematang Siantar"}},{"type":"node","id":4328146492,"lat":-6.9493489,"lon":107.6254604,"tags":{"addr:city":"Bandung","addr:housenumber":"489","addr:street":"Jalan Soekarno-Hatta","amenity":"restaurant","name":"Lee Ramen Bar"}},{"type":"node","id":4328159384,"lat":-6.9204135,"lon":107.5927319,"tags":{"addr:city":"Bandung","addr:housenumber":"293A","addr:street":"Jl. Cibadak","amenity":"restaurant","cuisine":"Noodle_Shop","name":"Bakmie Karet"}},{"type":"node","id":4328160941,"lat":-6.9150458,"lon":107.5965701,"tags":{"addr:city":"Bandung","addr:housenumber":"25-27","addr:street":"Jl. Pasirkaliki Blok B","amenity":"restaurant","name":"Mie Rica Kejaksaan"}},{"type":"node","id":4328171595,"lat":-6.904971,"lon":107.6102432,"tags":{"addr:city":"Bandung","addr:housenumber":"19","addr:street":"Jl. Ir. H.Djuanda","amenity":"cafe","name":"beri kopi"}},{"type":"node","id":4328175741,"lat":-6.9025596,"lon":107.6104052,"tags":{"addr:city":"Bandung, Jawa Barat","addr:housenumber":"10","addr:street":"Jl. Ranggagading","amenity":"cafe","name":"SWG COFFEE"}},{"type":"node","id":4328178661,"lat":-6.902495,"lon":107.6093707,"tags":{"addr:city":"Bandung, Jawa Barat","addr:housenumber":"8","addr:street":"Jl. Harianbanga","amenity":"restaurant","cuisine":"sushi","name":"Sushi Den"}},{"type":"node","id":4328179212,"lat":-6.9023283,"lon":107.6102359,"tags":{"addr:city":"Bandung, Jawa Barat","addr:housenumber":"2","addr:street":"Jl. Sawunggaling","amenity":"cafe","name":"Cafe Pohon Durian Bandung"}},{"type":"node","id":4328180206,"lat":-6.900301,"lon":107.6092063,"tags":{"addr:city":"Bandung, Jawa Barat","addr:street":"Jl. Taman Sari","amenity":"restaurant","cuisine":"Ramen_Restaurant","name":"Udin Ramen"}},{"type":"node","id":4328187726,"lat":-6.8885603,"lon":107.6137119,"tags":{"addr:city":"Bandung","addr:street":"Jl. Ir. H.Djuanda","amenity":"restaurant","name":"Nasi Goreng Gentayangan"}},{"type":"node","id":4328198157,"lat":-6.8895762,"lon":107.5990536,"tags":{"addr:city":"Bandung","addr:housenumber":"33","addr:street":"Jl. Sukamaju","amenity":"restaurant","name":"Warung Steak Pasadena"}},{"type":"node","id":4328211453,"lat":-6.8861336,"lon":107.5816203,"tags":{"addr:city":"Bandung","addr:housenumber":"76C","addr:postcode":"40164","addr:street":"Jalan Surya Sumantri","alt_name":"Starbucks Surya Sumantri","amenity":"cafe","brand":"Starbucks","brand:wikidata":"Q37158","brand:wikipedia":"en:Starbucks","cuisine":"coffee_shop","name":"Starbucks","official_name":"Starbucks Coffee","opening_hours":"Mo-Su 07:00-22:00","takeaway":"yes"}},{"type":"node","id":4328212064,"lat":-6.8850789,"lon":107.5815695,"tags":{"addr:city":"Bandung","addr:housenumber":"86","addr:street":"Jl. Surya Sumantri","amenity":"bar","name":"Directions Beat Family Karaoke"}},{"type":"node","id":4328218462,"lat":-6.8810304,"lon":107.5825971,"tags":{"addr:city":"Bandung, Jawa Barat","addr:street":"Jalan Prof. Dr. Surya Sumantri","amenity":"restaurant","cuisine":"belgian_restaurant","name":"The Volcano Resto & Cafe","name:en":"The Volcano"}},{"type":"node","id":4328253800,"lat":-6.9606074,"lon":107.5566158,"tags":{"addr:city":"Bandung, Jawa Barat","addr:street":"Taman Kopo Indah III","amenity":"cafe","name":"833R Store"}},{"type":"node","id":4328255023,"lat":-6.96392,"lon":107.56327,"tags":{"addr:city":"Bandung, Jawa Barat","addr:street":"Jalan Taman Kopo Indah II","amenity":"restaurant","name":"Swike Gardujati"}},{"type":"node","id":4328255986,"lat":-6.9641564,"lon":107.5662142,"tags":{"addr:city":"Bandung","addr:housenumber":"107","addr:street":"Taman Kopo Indah 1 Blok F","amenity":"restaurant","name":"Pempek Dakocan318"}},{"type":"node","id":4328257325,"lat":-6.9651681,"lon":107.5688564,"tags":{"addr:city":"Bandung","addr:street":"Jalan Raya Taman Kopo I","amenity":"restaurant","name":"Mentari Resto"}},{"type":"node","id":4329252652,"lat":-6.9095825,"lon":107.6273878,"tags":{"addr:city":"Bandung","addr:housenumber":"165","addr:street":"Jl. Taman Pramuka , Cihapit","amenity":"cafe","name":"Buthcer's Bill Cafe & Resto"}},{"type":"node","id":4329254729,"lat":-6.9105624,"lon":107.6276613,"tags":{"addr:city":"Bandung","addr:housenumber":"183","addr:street":"Jl. Taman Pramuka , Cihapit","amenity":"restaurant","name":"Bakmi Jogja Bengawan"}},{"type":"node","id":4329257063,"lat":-6.9113656,"lon":107.6276989,"tags":{"addr:city":"Bandung","addr:housenumber":"189","addr:street":"Jalan Letnan Laut Raden Eddy Martadinata","amenity":"restaurant","name":"Sop Konro Marannu"}},{"type":"node","id":4329266751,"lat":-6.9118276,"lon":107.6281662,"tags":{"addr:city":"Bandung","addr:housenumber":"191","addr:street":"JL RE. Martadinata (Riau)","amenity":"restaurant","name":"Fruitopia"}},{"type":"node","id":4329272990,"lat":-6.9124405,"lon":107.6281825,"tags":{"addr:city":"Bandung","addr:street":"Jl. Riau, Bandung Wetan","amenity":"restaurant","name":"Mie Jogja Pak Karso"}},{"type":"node","id":4329429670,"lat":-6.9002713,"lon":107.6340985,"tags":{"addr:city":"Bandung","addr:housenumber":"19","addr:postcode":"40122","addr:street":"Jalan Pahlawan","amenity":"fast_food","branch":"Pahlawan","brand":"Richeese Factory","brand:wikidata":"Q22915087","cuisine":"chicken","diet:halal":"yes","email":"rf-comments@richeesefactory.com","name":"Richeese Factory","opening_hours":"Mo-Su 10:00-24:00","phone":"+62 22 85880097","takeaway":"yes","website":"http://richeesefactory.com"}},{"type":"node","id":4329436128,"lat":-6.8994995,"lon":107.63409,"tags":{"addr:city":"Bandung","addr:housenumber":"17","addr:street":"Jl. Pahlawan , Cikutra","amenity":"restaurant","branch":"Pahlawan","brand":"California Fried Chicken","brand:wikidata":"Q5020502","cuisine":"chicken","name":"CFC","name:en":"CFC"}},{"type":"node","id":4329439350,"lat":-6.8986559,"lon":107.6338765,"tags":{"addr:city":"Bandung","amenity":"restaurant","name":"Mie Merapi"}},{"type":"node","id":4329445347,"lat":-6.8980078,"lon":107.6347887,"tags":{"addr:city":"Bandung","addr:housenumber":"16","addr:street":"Jl. PH.H. Mustofa , Cikutra","amenity":"restaurant","name":"Heidami Ramen"}},{"type":"node","id":4329459744,"lat":-6.8958583,"lon":107.6348705,"tags":{"addr:city":"Bandung","addr:street":"Jl. Pahlawan, Neglasari, Cibeunying Kaler","amenity":"cafe","name":"Gotcha Ice Cream"}},{"type":"node","id":4329462845,"lat":-6.8954547,"lon":107.6346062,"tags":{"addr:city":"Bandung","addr:housenumber":"73","addr:street":"Jl. Pahlawan","amenity":"restaurant","name":"Resep Moyang"}},{"type":"node","id":4329483915,"lat":-6.8946071,"lon":107.6346631,"tags":{"addr:city":"Bandung","addr:housenumber":"#85","addr:street":"Jl. Pahlawan , Sukaluyu, Cibeunying Kaler","amenity":"cafe","name":"Koffiechino"}},{"type":"node","id":4329494632,"lat":-6.8940138,"lon":107.6348136,"tags":{"addr:city":"Bandung","addr:housenumber":"89","addr:street":"Jl. Pahlawan","amenity":"cafe","name":"Trends Cafe & Resto"}},{"type":"node","id":4329495286,"lat":-6.8943992,"lon":107.635277,"tags":{"addr:city":"Bandung","addr:housenumber":"72","addr:street":"JL Pahlawan","amenity":"cafe","name":"Gaza Mediterranean"}},{"type":"node","id":4329510946,"lat":-6.8876325,"lon":107.6154079,"tags":{"addr:city":"Bandung, Jawa Barat","addr:housenumber":"96","addr:street":"Jalan Dipatiukur","amenity":"restaurant","name":"Ceker Setan"}},{"type":"node","id":4329511638,"lat":-6.890292,"lon":107.6079525,"tags":{"addr:city":"Bandung","addr:street":"Jl. Taman Sari","amenity":"restaurant","name":"CFC Kebun Binatang","name:en":"CFC"}},{"type":"node","id":4329516993,"lat":-6.8874739,"lon":107.6132269,"tags":{"addr:city":"Bandung","addr:housenumber":"161","addr:street":"Jalan Ir. Haji Juanda","amenity":"restaurant","name":"Saisan"}},{"type":"node","id":4329523439,"lat":-6.890525,"lon":107.6169022,"tags":{"addr:city":"Bandung, Jawa Barat","addr:housenumber":"68","addr:street":"Jl. Dipatiukur","amenity":"restaurant","name":"Steak Ranjang"}},{"type":"node","id":4329526433,"lat":-6.8922074,"lon":107.6176016,"tags":{"addr:city":"Bandung, Jawa Barat","addr:housenumber":"42/60","addr:street":"Jl. Dipatiukur","amenity":"restaurant","name":"Kedai Lontong Medan Ka' Zahra"}},{"type":"node","id":4329530805,"lat":-6.8924156,"lon":107.6153131,"tags":{"addr:city":"Bandung","addr:housenumber":"9","addr:street":"Jl. Imam Bonjol","amenity":"restaurant","name":"Lomie Imam Bonjol"}},{"type":"node","id":4329532364,"lat":-6.8949494,"lon":107.6164681,"tags":{"addr:city":"Bandung, Jawa Barat","addr:housenumber":"26","addr:street":"Jl. Hasanudin","amenity":"cafe","name":"Hangout Cafe","name:en":"Hangout"}},{"type":"node","id":4329535509,"lat":-6.8948256,"lon":107.6173147,"tags":{"addr:city":"Bandung, Jawa Barat","addr:street":"Jl. Hasanudin","amenity":"restaurant","cuisine":"Seafood_Restaurant","name":"Kerang Ajaib DU"}},{"type":"node","id":4329536233,"lat":-6.8960232,"lon":107.6168462,"tags":{"addr:city":"Bandung","addr:housenumber":"42","addr:street":"Jalan Dipatiukur","amenity":"cafe","brand":"Starbucks","brand:wikidata":"Q37158","brand:wikipedia":"en:Starbucks","cuisine":"coffee_shop","delivery":"yes","internet_access":"wlan","internet_access:fee":"no","name":"Starbucks","official_name":"Starbucks Coffee","opening_hours":"Mo-Su 09:00-21:00","smoking":"outside","takeaway":"yes","website":"https://www.starbucks.com/"}},{"type":"node","id":4329539516,"lat":-6.8961805,"lon":107.6166992,"tags":{"addr:city":"Bandung, Jawa Barat","addr:housenumber":"36","addr:street":"Jl. Dipatiukur","amenity":"cafe","name":"Kedai Kecil"}},{"type":"node","id":4329541106,"lat":-6.8969548,"lon":107.6156562,"tags":{"addr:city":"Bandung, Jawa Barat","addr:housenumber":"26B","addr:street":"Jalan Dipatiukur","amenity":"cafe","name":"B'Owl!"}},{"type":"node","id":4329546450,"lat":-6.8976182,"lon":107.6156768,"tags":{"addr:city":"Bandung, Jawa Barat","addr:housenumber":"11","addr:street":"Jl. H. Wasid","amenity":"restaurant","name":"Aji Anom"}},{"type":"node","id":4329561884,"lat":-6.8981525,"lon":107.6149453,"tags":{"addr:city":"Bandung, Jawa Barat","addr:street":"Jalan Dipatiukur","amenity":"restaurant","name":"L'Societe Dine & Bar"}},{"type":"node","id":4329565488,"lat":-6.8990246,"lon":107.6194663,"tags":{"addr:city":"Bandung","addr:housenumber":"49","addr:street":"Jl. Surapati","amenity":"restaurant","name":"Bale Gazeeboe"}},{"type":"node","id":4329573255,"lat":-6.9189145,"lon":107.5889524,"tags":{"addr:city":"Bandung","addr:street":"Jl. Jendral Sudirman","amenity":"cafe","name":"Blackjack Coffee","name:en":"Blackjack"}},{"type":"node","id":4329575240,"lat":-6.9195683,"lon":107.5927733,"tags":{"addr:city":"Bandung","addr:housenumber":"319","addr:street":"Jl. Jenderal Sudirman","amenity":"restaurant","name":"Istana Raja Cobra"}},{"type":"node","id":4329577520,"lat":-6.9195066,"lon":107.5939635,"tags":{"addr:city":"Bandung","addr:housenumber":"171","addr:street":"Jalan Jendral Sudirman","amenity":"restaurant","name":"Sate Dj"}},{"type":"node","id":4329579352,"lat":-6.9198568,"lon":107.5954646,"tags":{"addr:city":"Bandung","addr:housenumber":"245","addr:street":"Jl. Jendral Sudirman","amenity":"restaurant","diet:vegetarian":"only","name":"KwangMing Vegetarian"}},{"type":"node","id":4329580936,"lat":-6.9199557,"lon":107.5963305,"tags":{"addr:city":"Bandung","addr:street":"Jl. Jendral Sudirman","amenity":"restaurant","cuisine":"chinese","name":"Tahu YUN-YI"}},{"type":"node","id":4329591338,"lat":-6.975454,"lon":107.6331073,"tags":{"addr:city":"Bandung","addr:street":"Jalan Sukabiru","amenity":"restaurant","cuisine":"italian","name":"La Piccola Italia"}},{"type":"node","id":4329594116,"lat":-6.9769183,"lon":107.6326245,"tags":{"addr:city":"Bandung","addr:housenumber":"88","addr:street":"Jl. Sukabirus","amenity":"cafe","name":"Kaminumasa","name:en":"Kaminumasa"}},{"type":"node","id":4329599521,"lat":-6.8982719,"lon":107.6435216,"tags":{"addr:city":"Bandung","addr:housenumber":"143","addr:street":"Jl. Cikutra","amenity":"restaurant","cuisine":"Japanese_Restaurant","name":"Jigoku Ramen"}},{"type":"node","id":4329601853,"lat":-6.8975816,"lon":107.6437749,"tags":{"addr:city":"Bandung","addr:housenumber":"210","addr:street":"Jln. Cikutra","amenity":"cafe","cuisine":"tea;coffee_shop","name":"Chillax Coffee And Tea","name:en":"Chillax"}},{"type":"node","id":4329604283,"lat":-6.8983404,"lon":107.6436331,"tags":{"addr:city":"Bandung","addr:street":"Jl. Cikutra","amenity":"restaurant","name":"Jigoku Kitchen"}},{"type":"node","id":4329605668,"lat":-6.89895,"lon":107.6434172,"tags":{"addr:city":"Bandung","addr:housenumber":"129A","addr:street":"Jalan Cikutra","amenity":"restaurant","name":"Angkringan Si Meong"}},{"type":"node","id":4329605943,"lat":-6.8991169,"lon":107.6435269,"tags":{"addr:city":"Bandung","addr:housenumber":"176","addr:street":"Jalan Cikutra","amenity":"restaurant","cuisine":"indonesian","name":"Yurin","opening_hours":"Mo-Su 08:00-21:00; 2026 Feb 18-2026 Mar 20 Mo-Su 18:00-21:00 open \"Ramadhan (Reguler)\"; 2026 Feb 18-2026 Mar 20 Mo-Su 02:00-04:15 open \"Ramadhan (Sahur) \"; 2026 Mar 21-2026 Mar 25 closed \"Idul Fitri\"","self_service":"yes","takeaway":"Mo-Su 08:00-21:00; 2026 Feb 18 - 2026 Mar 20 Mo-Su 14:00-21:00,02:00-04:15; 2026 Mar 21-2026 Mar 25 closed \"Idul Fitri\""}},{"type":"node","id":4329610998,"lat":-6.8869859,"lon":107.6149061,"tags":{"addr:city":"Bandung, Jawa Barat","addr:street":"Jl. Dipatiukur","amenity":"cafe","name":"Bober"}},{"type":"node","id":4329621133,"lat":-6.8668806,"lon":107.5937278,"tags":{"addr:city":"bandung","addr:housenumber":"193","addr:street":"Jl. Setiabudh","amenity":"restaurant","name":"Wonjo Korean Barbeque"}},{"type":"node","id":4329624776,"lat":-6.8677159,"lon":107.5936571,"tags":{"addr:city":"Bandung","addr:housenumber":"175","addr:street":"Jalan Dokter Setiabudhi","amenity":"restaurant","name":"Waroeng Setiabudhi Surabi & Baso Kampung"}},{"type":"node","id":4329625681,"lat":-6.8686153,"lon":107.5937916,"tags":{"addr:city":"Bandung","addr:housenumber":"206C","addr:street":"Jl. Setiabudhi","amenity":"restaurant","cuisine":"steak","name":"My Little Kitchen (MYLK Steakhouse)"}},{"type":"node","id":4329633659,"lat":-6.8689556,"lon":107.593519,"tags":{"addr:city":"Bandung","addr:housenumber":"159","addr:street":"Jalan Doktor Setiabudi","amenity":"restaurant","name":"Ma' Uneh"}},{"type":"node","id":4329641605,"lat":-6.8713736,"lon":107.594601,"tags":{"addr:city":"Bandung","addr:housenumber":"1","addr:street":"Jalan Geger Kalong Hilir","amenity":"restaurant","name":"Nobu Ramen & Sushi"}},{"type":"node","id":4329643263,"lat":-6.8707908,"lon":107.5937423,"tags":{"addr:city":"Bandung","addr:housenumber":"170","addr:street":"Jl. Setiabudhi","amenity":"restaurant","name":"Abuba Steak"}},{"type":"node","id":4329644625,"lat":-6.8710748,"lon":107.5936203,"tags":{"addr:city":"Bandung","addr:housenumber":"103","addr:street":"Jl. Setiabudhi","amenity":"cafe","name":"18 Hrs Cafe"}},{"type":"node","id":4329652298,"lat":-6.8747901,"lon":107.5964663,"tags":{"addr:city":"Bandung","addr:housenumber":"140","addr:street":"Jl. Setiabudhi","amenity":"restaurant","name":"Ayam Djogja"}},{"type":"node","id":4329667846,"lat":-6.8794456,"lon":107.5964269,"tags":{"addr:city":"Bandung","addr:housenumber":"228","addr:street":"Jl. Sukajadi","amenity":"restaurant","name":"Ramen 38 Chaya Bandung","name:en":"Ramen 38 Chaya"}},{"type":"node","id":4329668751,"lat":-6.8791683,"lon":107.5960754,"tags":{"addr:city":"Bandung","addr:street":"Jl. Sukahaji Permai","amenity":"restaurant","name":"MENARA BAKMI","name:en":"Menara Bakmi"}},{"type":"node","id":4329670481,"lat":-6.8809958,"lon":107.5972527,"tags":{"addr:city":"Bandung","addr:housenumber":"23","addr:street":"Jl. Karangsari","amenity":"restaurant","name":"Bridge Coffee Boutique & Dining","name:it":"Bridge"}},{"type":"node","id":4329674547,"lat":-6.91908,"lon":107.6125521,"tags":{"addr:city":"Bandung","addr:housenumber":"48-50","addr:street":"Jalan Tamblong","amenity":"restaurant","name":"MARLO KITCHEN"}},{"type":"node","id":4329679223,"lat":-6.9053771,"lon":107.6009336,"tags":{"addr:city":"Bandung","addr:housenumber":"26","addr:street":"Jl. Dr. Cipto , Pasir Kaliki","amenity":"restaurant","name":"Rumah Tungku"}},{"type":"node","id":4329700089,"lat":-6.9038425,"lon":107.600752,"tags":{"addr:city":"Bandung","addr:street":"Jl. Dr. Rajiman, Pasir Kaliki, Cicendo","amenity":"restaurant","name":"Saung Radjiman"}},{"type":"node","id":4331914672,"lat":-6.9663341,"lon":107.5757499,"tags":{"addr:city":"Bandung, Jawa Barat","addr:housenumber":"92","addr:street":"Jl. Kopo Bihbul, Sayati.","amenity":"restaurant","branch":"Kopo Bandung","brand":"Pizza Hut","brand:wikidata":"Q191615","cuisine":"pizza","name":"Pizza Hut"}},{"type":"node","id":4333447016,"lat":-6.930002,"lon":107.6144025,"tags":{"addr:city":"Bandung","addr:street":"Jalan Melong Kaler","amenity":"fast_food","name":"Martabak Sari Sunda"}},{"type":"node","id":4340655706,"lat":-6.9101164,"lon":107.6314897,"tags":{"addr:housenumber":"50","addr:street":"Jalan Anggrek","amenity":"fast_food","cuisine":"indonesian","name":"Bakso Rudal","opening_hours":"Mo-Su 09:00-18:00","operator":"Karmi","phone":"+62 857 2010 0301"}},{"type":"node","id":4352496389,"lat":-6.9039846,"lon":107.6672996,"tags":{"addr:housenumber":"23","addr:postcode":"40194","addr:street":"Jalan A.H Nasution","amenity":"restaurant","cuisine":"indonesian","name":"Resto Keluarga","opening_hours":"Mo-Su 09:00-22:30","phone":"+62 022 87790028","website":"https://www.zomato.com/id/bandung/ayam-penyet-joko-solo-mandalajati"}},{"type":"node","id":4354988714,"lat":-6.9063815,"lon":107.6103688,"tags":{"addr:city":"Bandung","addr:housenumber":"3","addr:postcode":"40115","addr:street":"Jl. Ir. H. Djuanda","amenity":"cafe","cuisine":"western","name":"Soda Resto"}},{"type":"node","id":4365930312,"lat":-6.9040985,"lon":107.5794215,"tags":{"addr:city":"Bandung","addr:postcode":"40174","addr:street":"Jalan Pajajaran","amenity":"restaurant","name":"Wisata Kuliner Bandara Huseinsastranegara"}},{"type":"node","id":4365960649,"lat":-6.9169485,"lon":107.6091118,"tags":{"addr:city":"Bandung","addr:housenumber":"99-101","addr:postcode":"40111","addr:street":"Jalan Braga","amenity":"cafe","branch":"Braga City Walk","brand":"Starbucks","brand:wikidata":"Q37158","cuisine":"coffee_shop","name":"Starbucks","official_name":"Starbucks Coffee","takeaway":"yes"}},{"type":"node","id":4366097668,"lat":-6.9071717,"lon":107.6233922,"tags":{"amenity":"cafe","name":"Bober"}},{"type":"node","id":4367024650,"lat":-6.9105164,"lon":107.6259586,"tags":{"addr:city":"Bandung","addr:housenumber":"114","addr:postcode":"40113","addr:street":"Jalan R.E. Martadinata","amenity":"restaurant","cuisine":"ramen","name":"Tsuka Ramen"}},{"type":"node","id":4367437571,"lat":-6.9320455,"lon":107.6252304,"tags":{"addr:city":"Bandung","addr:housenumber":"123","addr:postcode":"40263","addr:street":"Jalan Lodaya","amenity":"restaurant","name":"Mie Baso Akung"}},{"type":"node","id":4367454595,"lat":-6.9175752,"lon":107.6044197,"tags":{"addr:city":"Bandung","addr:housenumber":"81","addr:postcode":"40251","addr:street":"Jalan Otto Iskandardinata","alt_name":"Kentucky Fried Chicken","amenity":"fast_food","brand":"KFC","brand:wikidata":"Q524757","brand:wikipedia":"en:KFC","cuisine":"chicken","name":"KFC","takeaway":"yes"}},{"type":"node","id":4367985891,"lat":-6.8939186,"lon":107.6054344,"tags":{"addr:postcode":"40131","amenity":"restaurant","cuisine":"japanese","name":"Yoshinoya"}},{"type":"node","id":4368837989,"lat":-6.9090714,"lon":107.6257541,"tags":{"amenity":"restaurant","name":"Baso Cuanki & Batagor Serayu"}},{"type":"node","id":4368869904,"lat":-6.9045305,"lon":107.6199423,"tags":{"amenity":"cafe","name":"Please, Please, Please"}},{"type":"node","id":4369040400,"lat":-6.8989615,"lon":107.6050417,"tags":{"amenity":"restaurant","name":"RM Ampera"}},{"type":"node","id":4370063123,"lat":-6.9167985,"lon":107.6092222,"tags":{"amenity":"restaurant","name":"Warunk Upnormal"}},{"type":"node","id":4370113727,"lat":-6.9248412,"lon":107.621374,"tags":{"amenity":"cafe","name":"Le Delice Cafe And Bakery"}},{"type":"node","id":4370466980,"lat":-6.8873777,"lon":107.60234,"tags":{"amenity":"restaurant","name":"Dapur Dahapati"}},{"type":"node","id":4370477176,"lat":-6.9078484,"lon":107.6237768,"tags":{"addr:housenumber":"125","amenity":"cafe","name":"Nanny's Pavillon"}},{"type":"node","id":4370478568,"lat":-6.9448984,"lon":107.6305201,"tags":{"amenity":"restaurant","cuisine":"indonesian","delivery":"yes","level":"2","name":"Bebek Kaleyo","opening_hours":"Mo-Sa 09:00-21:00","opening_hours:kitchen":"Mo-Sa 09:00-20:30","smoking":"yes","takeaway":"yes","toilets":"yes","toilets:access":"customers","wheelchair":"limited"}},{"type":"node","id":4373086558,"lat":-6.8825002,"lon":107.5997553,"tags":{"amenity":"restaurant","name":"Bumbu Desa Rumah Mode"}},{"type":"node","id":4373091810,"lat":-6.8829404,"lon":107.5992425,"tags":{"amenity":"restaurant","name":"Eaton Bakery"}},{"type":"node","id":4373091831,"lat":-6.8829031,"lon":107.6000043,"tags":{"amenity":"restaurant","name":"Surabi Rumah Mode"}},{"type":"node","id":4373118986,"lat":-6.8937427,"lon":107.5868538,"tags":{"amenity":"restaurant","name":"Warung Sate Shinta"}},{"type":"node","id":4373144304,"lat":-6.9116564,"lon":107.6268819,"tags":{"amenity":"restaurant","name":"Mouton Slice And Grill","name:en":"Mouton"}},{"type":"node","id":4373206434,"lat":-6.9070587,"lon":107.6237299,"tags":{"amenity":"restaurant","name":"Bellamie Boulangerie"}},{"type":"node","id":4374132496,"lat":-6.9045876,"lon":107.6175664,"tags":{"addr:city":"Bandung","addr:housenumber":"5","addr:postcode":"40115","addr:street":"Jalan Progo","amenity":"restaurant","name":"Tokyo Connection"}},{"type":"node","id":4374171589,"lat":-6.9018694,"lon":107.6122673,"tags":{"addr:city":"Bandung","addr:housenumber":"40","addr:postcode":"40116","addr:street":"Jalan Ir. H. Juanda","alt_name":"Kentucky Fried Chicken","amenity":"fast_food","branch":"Dago","brand":"KFC","brand:wikidata":"Q524757","cuisine":"chicken","name":"KFC","name:en":"KFC","takeaway":"yes"}},{"type":"node","id":4374235509,"lat":-6.9001488,"lon":107.6094398,"tags":{"addr:city":"Bandung, Jawa Barat","addr:housenumber":"54","addr:postcode":"40116","addr:street":"Jalan Taman Sari","amenity":"restaurant","cuisine":"steak_house","name":"Waroeng Steak And Shake"}},{"type":"node","id":4375073435,"lat":-6.9136423,"lon":107.6024432,"tags":{"air_conditioning":"no","amenity":"fast_food","brand":"Roti'O","brand:wikidata":"Q124354233","diet:halal":"only","name":"Roti'O","shop":"bakery"}},{"type":"node","id":4375120920,"lat":-6.9043768,"lon":107.6119068,"tags":{"addr:city":"Bandung","addr:housenumber":"9","addr:postcode":"40115","addr:street":"Jalan Sultan Agung","amenity":"restaurant","name":"Rumah Makan Legoh","name:en":"Legoh"}},{"type":"node","id":4375134546,"lat":-6.9070236,"lon":107.6057856,"tags":{"addr:city":"Bandung","addr:housenumber":"26","addr:postcode":"40117","addr:street":"Jalan Pajajaran","amenity":"cafe","name":"Ujenk Gemi Bar","name:en":"Ujenk Gemi"}},{"type":"node","id":4398549923,"lat":-6.8979509,"lon":107.6137089,"tags":{"amenity":"restaurant","name":"CO&CO Space"}},{"type":"node","id":4398549924,"lat":-6.897885,"lon":107.6138041,"tags":{"amenity":"restaurant","name":"Butterfield Kitchen"}},{"type":"node","id":4402479636,"lat":-6.9190188,"lon":107.6078605,"tags":{"amenity":"restaurant","name":"Ayam Penyet Surabaya"}},{"type":"node","id":4404017506,"lat":-6.9207251,"lon":107.5984722,"tags":{"amenity":"restaurant","name":"Kue Tiau Sapi Asli A88","opening_hours":"Mo-Sa 09:00-09:30"}},{"type":"node","id":4407610669,"lat":-6.9229988,"lon":107.5985499,"tags":{"amenity":"restaurant","name":"Tahu SB"}},{"type":"node","id":4446613135,"lat":-6.9206091,"lon":107.6154775,"tags":{"addr:city":"Bandung","addr:housenumber":"79","addr:postcode":"40112","addr:street":"Jalan Naripan","amenity":"cafe","name":"Lacamera Coffee"}},{"type":"node","id":4447691092,"lat":-6.974414,"lon":107.6326913,"tags":{"amenity":"restaurant","name":"Rumah Makan Podomoro","name:it":"Podomoro"}},{"type":"node","id":4447753693,"lat":-6.97448,"lon":107.633288,"tags":{"amenity":"restaurant","name":"McDoen"}},{"type":"node","id":4468009743,"lat":-6.9052744,"lon":107.6141365,"tags":{"amenity":"restaurant","name":"Warteg Hipster"}},{"type":"node","id":4468560326,"lat":-6.8873682,"lon":107.6021008,"tags":{"amenity":"fast_food","name":"Cireng Cipaganti"}},{"type":"node","id":4470387372,"lat":-6.9073948,"lon":107.5833286,"tags":{"amenity":"restaurant","name":"Bakso Boedjangan"}},{"type":"node","id":4515219205,"lat":-6.9084123,"lon":107.6181452,"tags":{"addr:city":"Bandung","addr:housenumber":"5","addr:postcode":"40115","addr:street":"Jalan Flores","amenity":"restaurant","capacity":"100","cuisine":"coffee_shop","delivery":"no","name":"Flores Number Five","smoking":"dedicated","takeaway":"yes"}},{"type":"node","id":4526894252,"lat":-6.8767124,"lon":107.5728814,"tags":{"amenity":"cafe","name":"N Cafe"}},{"type":"node","id":4542484993,"lat":-6.9248012,"lon":107.6199116,"tags":{"addr:street":"Jalan Burangrang","amenity":"restaurant","name":"Bakso Tjap Haji"}},{"type":"node","id":4547680368,"lat":-6.9058067,"lon":107.5968488,"tags":{"amenity":"restaurant","building:floor":"3","name":"Pepper Lunch","opening_hours":"Mo-Su 10:00-22:00"}},{"type":"node","id":4550655407,"lat":-6.906181,"lon":107.6144313,"tags":{"amenity":"cafe","name":"Uncle A Urban Town"}},{"type":"node","id":4550671036,"lat":-6.9061987,"lon":107.6143036,"tags":{"amenity":"restaurant","name":"Fella"}},{"type":"node","id":4553213241,"lat":-6.8577375,"lon":107.6289779,"tags":{"amenity":"cafe","name":"Forest Cafe","opening_hours":"Mo-Su 08:00-20:00"}},{"type":"node","id":4554066323,"lat":-6.8933618,"lon":107.6057065,"tags":{"amenity":"restaurant","cuisine":"indonesian","name":"Katsunyaka"}},{"type":"node","id":4560221630,"lat":-6.9202633,"lon":107.6017398,"tags":{"amenity":"restaurant","name":"Tjoenkie"}},{"type":"node","id":4561525204,"lat":-6.887541,"lon":107.5968379,"tags":{"amenity":"restaurant","name":"Cop-Copine"}},{"type":"node","id":4564568005,"lat":-6.8999911,"lon":107.6039898,"tags":{"amenity":"restaurant","name":"Borobudor"}},{"type":"node","id":4566756042,"lat":-6.9021861,"lon":107.6247453,"tags":{"amenity":"restaurant","name":"Koffie Tijd!"}},{"type":"node","id":4567988592,"lat":-6.8939783,"lon":107.586321,"tags":{"amenity":"restaurant","name":"Trailer Cafe"}},{"type":"node","id":4691521502,"lat":-6.9185448,"lon":107.6155488,"tags":{"addr:city":"Bandung","addr:housenumber":"11","addr:postcode":"40112","addr:street":"Jalan Button","amenity":"restaurant","cuisine":"tea;sausage;coffee_shop;steak_house;indonesian;pasta;chicken;diner;barbecue","email":"keukenvanelsje@gmail.com","internet_access":"wlan","name":"de Keuken van Elsje","opening_hours":"Mo-Su 10:00-22:00","phone":"+62 22 20528782","website":"http://www.facebook.com/keukenvanelsje"}},{"type":"node","id":4784488922,"lat":-6.8952024,"lon":107.6022782,"tags":{"amenity":"restaurant","name":"Iga Bakar Si Jangkung"}},{"type":"node","id":4788348021,"lat":-6.930728,"lon":107.6219372,"tags":{"amenity":"cafe","name":"Loco Chiks and Chill"}},{"type":"node","id":4936436721,"lat":-6.9186286,"lon":107.6141221,"tags":{"addr:housenumber":"No. 7","addr:street":"Jalan Veteran","amenity":"cafe","internet_access":"wlan","name":"Brussels Spring"}},{"type":"node","id":4971536021,"lat":-6.9161264,"lon":107.5887671,"tags":{"amenity":"cafe","name":"sfroastery","name:it":"Sfroastery"}},{"type":"node","id":4971536121,"lat":-6.8581757,"lon":107.6323803,"tags":{"amenity":"cafe","name":"Armor Coffee","name:it":"Armor"}},{"type":"node","id":4991473023,"lat":-6.877199,"lon":107.57791,"tags":{"amenity":"fast_food","name":"Nasi Goreng Calakan"}},{"type":"node","id":4991473024,"lat":-6.8771028,"lon":107.5779728,"tags":{"amenity":"fast_food","name":"D'BestO"}},{"type":"node","id":4991479921,"lat":-6.8780412,"lon":107.5773986,"tags":{"amenity":"restaurant","name":"Rumah Makan Partugoan","name:en":"Lapo Partugoan (Khas Batak)"}},{"type":"node","id":5028291124,"lat":-6.8923683,"lon":107.6182983,"tags":{"amenity":"fast_food","name":"Ayam bakar penyet","name:it":"Ajam Bakar Penyet"}},{"type":"node","id":5042411981,"lat":-6.9528421,"lon":107.6277228,"tags":{"amenity":"restaurant","name":"Foodlife"}},{"type":"node","id":5047303242,"lat":-6.8616646,"lon":107.6484767,"tags":{"addr:city":"Bandung","addr:housename":"Aviator Coffee Camp","addr:housenumber":"28","addr:postcode":"40198","addr:street":"Jl. Dago Resort Raya","amenity":"cafe","cuisine":"asian","name":"Aviator Coffee Camp"}},{"type":"node","id":5058394221,"lat":-6.8982686,"lon":107.6173956,"tags":{"amenity":"restaurant","cuisine":"indonesian","name":"S'ei Sapi Lamalera"}},{"type":"node","id":5061207022,"lat":-6.9023115,"lon":107.6135993,"tags":{"amenity":"restaurant","name":"Soto Sedaap Boyolali"}},{"type":"node","id":5119336923,"lat":-6.8903288,"lon":107.5961947,"tags":{"amenity":"restaurant","name":"Pepper Lunch"}},{"type":"node","id":5119336924,"lat":-6.8901174,"lon":107.5960789,"tags":{"amenity":"cafe","name":"The People's Cafe"}},{"type":"node","id":5119336925,"lat":-6.8903231,"lon":107.5963214,"tags":{"amenity":"restaurant"}},{"type":"node","id":5119336926,"lat":-6.8901104,"lon":107.5965612,"tags":{"amenity":"cafe","brand":"Starbucks","brand:wikidata":"Q37158","brand:wikipedia":"en:Starbucks","cuisine":"coffee_shop","name":"Starbucks Reserve","name:en":"Starbucks","official_name":"Starbucks Coffee","takeaway":"yes"}},{"type":"node","id":5119336927,"lat":-6.889655,"lon":107.5960529,"tags":{"amenity":"restaurant","name":"Zen Bu"}},{"type":"node","id":5119336928,"lat":-6.8890381,"lon":107.5960491,"tags":{"amenity":"restaurant","name":"I-Tasuki"}},{"type":"node","id":5119336929,"lat":-6.8884652,"lon":107.5960213,"tags":{"amenity":"restaurant","name":"Zuki Suki"}},{"type":"node","id":5119339540,"lat":-6.8901004,"lon":107.5961777,"tags":{"addr:housenumber":"B55","amenity":"cafe","name":"Djournál"}},{"type":"node","id":5119339730,"lat":-6.8903255,"lon":107.5962561,"tags":{"amenity":"restaurant","name":"Shin Men"}},{"type":"node","id":5119339731,"lat":-6.8903206,"lon":107.5963924,"tags":{"amenity":"restaurant","name":"Domino's"}},{"type":"node","id":5119339732,"lat":-6.8902188,"lon":107.5965618,"tags":{"alt_name":"Kentucky Fried Chicken","amenity":"fast_food","brand":"KFC","brand:wikidata":"Q524757","brand:wikipedia":"en:KFC","cuisine":"chicken","internet_access":"wlan","name":"KFC","name:en":"KFC","opening_hours":"Mo-Fr 09:00-23:00; Sa-Su 09:00-00:00","takeaway":"yes"}},{"type":"node","id":5119339734,"lat":-6.889791,"lon":107.5960614,"tags":{"amenity":"restaurant","name":"Rempah Bistro"}},{"type":"node","id":5119339735,"lat":-6.8887545,"lon":107.5960331,"tags":{"amenity":"restaurant","name":"Gula Merah"}},